[
  {
    "codigo": "EC010150",
    "nombre": "Cuenca",
    "provincia": "Azuay",
    "lat": -2.8882039336676173,
    "lon": -78.99780194428489,
    "tipo_zona": 1,
    "altitud": 1500.0,
    "precip_promedio": 26.200166666666664,
    "riesgo": "Bajo",
    "pct_alto": 1.6666666666666667,
    "pct_bajo": 98.33333333333333,
    "pct_medio": 0.0
  },
  {
    "codigo": "EC010151",
    "nombre": "Baños",
    "provincia": "Azuay",
    "lat": -2.983539978768038,
    "lon": -79.20346078480351,
    "tipo_zona": 0,
    "altitud": 2264.2,
    "precip_promedio": 19.635555555555555,
    "riesgo": "Bajo",
    "pct_alto": 0.0,
    "pct_bajo": 98.88888888888889,
    "pct_medio": 1.1111111111111112
  },
  {
    "codigo": "EC010152",
    "nombre": "Cumbe",
    "provincia": "Azuay",
    "lat": -3.1022405026840563,
    "lon": -79.02016458141128,
    "tipo_zona": 0,
    "altitud": 1746.4,
    "precip_promedio": 18.67983333333333,
    "riesgo": "Bajo",
    "pct_alto": 0.0,
    "pct_bajo": 100.0,
    "pct_medio": 0.0
  },
  {
    "codigo": "EC010153",
    "nombre": "Chaucha",
    "provincia": "Azuay",
    "lat": -2.9306242489939884,
    "lon": -79.39456830560168,
    "tipo_zona": 0,
    "altitud": 2354.2,
    "precip_promedio": 23.68422222222222,
    "riesgo": "Bajo",
    "pct_alto": 0.0,
    "pct_bajo": 95.0,
    "pct_medio": 5.0
  },
  {
    "codigo": "EC010154",
    "nombre": "Checa",
    "provincia": "Azuay",
    "lat": -2.7110717404923115,
    "lon": -79.04122864318653,
    "tipo_zona": 0,
    "altitud": 1500.0,
    "precip_promedio": 21.905,
    "riesgo": "Bajo",
    "pct_alto": 0.0,
    "pct_bajo": 98.33333333333333,
    "pct_medio": 1.6666666666666667
  },
  {
    "codigo": "EC010155",
    "nombre": "Chiquintad",
    "provincia": "Azuay",
    "lat": -2.76910559423566,
    "lon": -79.05667705973178,
    "tipo_zona": 0,
    "altitud": 1500.0,
    "precip_promedio": 23.0315,
    "riesgo": "Bajo",
    "pct_alto": 0.0,
    "pct_bajo": 98.33333333333333,
    "pct_medio": 1.6666666666666667
  },
  {
    "codigo": "EC010156",
    "nombre": "Llacao",
    "provincia": "Azuay",
    "lat": -2.841998224405673,
    "lon": -78.93027723616309,
    "tipo_zona": 0,
    "altitud": 1500.0,
    "precip_promedio": 26.457722222222223,
    "riesgo": "Bajo",
    "pct_alto": 0.0,
    "pct_bajo": 98.33333333333333,
    "pct_medio": 1.6666666666666667
  },
  {
    "codigo": "EC010157",
    "nombre": "Molleturo",
    "provincia": "Azuay",
    "lat": -2.741120493663292,
    "lon": -79.40050520935695,
    "tipo_zona": 0,
    "altitud": 2542.2,
    "precip_promedio": 25.27722222222222,
    "riesgo": "Bajo",
    "pct_alto": 0.0,
    "pct_bajo": 93.33333333333333,
    "pct_medio": 6.666666666666667
  },
  {
    "codigo": "EC010158",
    "nombre": "Nulti",
    "provincia": "Azuay",
    "lat": -2.8639223601328387,
    "lon": -78.89035352417626,
    "tipo_zona": 0,
    "altitud": 1500.0,
    "precip_promedio": 28.67227777777778,
    "riesgo": "Bajo",
    "pct_alto": 0.0,
    "pct_bajo": 97.77777777777777,
    "pct_medio": 2.2222222222222223
  },
  {
    "codigo": "EC010159",
    "nombre": "Octavio Cordero Palacios",
    "provincia": "Azuay",
    "lat": -2.77555989208158,
    "lon": -78.97102069161981,
    "tipo_zona": 0,
    "altitud": 1563.6,
    "precip_promedio": 23.226555555555553,
    "riesgo": "Bajo",
    "pct_alto": 0.0,
    "pct_bajo": 98.33333333333333,
    "pct_medio": 1.6666666666666667
  },
  {
    "codigo": "EC010160",
    "nombre": "Paccha",
    "provincia": "Azuay",
    "lat": -2.898618626842529,
    "lon": -78.92899274670827,
    "tipo_zona": 0,
    "altitud": 1500.0,
    "precip_promedio": 27.27572222222222,
    "riesgo": "Bajo",
    "pct_alto": 0.0,
    "pct_bajo": 98.88888888888889,
    "pct_medio": 1.1111111111111112
  },
  {
    "codigo": "EC010161",
    "nombre": "Quingeo",
    "provincia": "Azuay",
    "lat": -3.0546717117008693,
    "lon": -78.94082151146719,
    "tipo_zona": 0,
    "altitud": 1768.5,
    "precip_promedio": 23.683277777777775,
    "riesgo": "Bajo",
    "pct_alto": 0.0,
    "pct_bajo": 100.0,
    "pct_medio": 0.0
  },
  {
    "codigo": "EC010162",
    "nombre": "Ricaurte",
    "provincia": "Azuay",
    "lat": -2.8562219777963493,
    "lon": -78.96322006001796,
    "tipo_zona": 0,
    "altitud": 1663.6,
    "precip_promedio": 26.200166666666664,
    "riesgo": "Bajo",
    "pct_alto": 0.0,
    "pct_bajo": 98.33333333333333,
    "pct_medio": 1.6666666666666667
  },
  {
    "codigo": "EC010163",
    "nombre": "San Joaquín",
    "provincia": "Azuay",
    "lat": -2.9055736198241604,
    "lon": -79.19315845142124,
    "tipo_zona": 0,
    "altitud": 1637.3,
    "precip_promedio": 23.952611111111114,
    "riesgo": "Bajo",
    "pct_alto": 0.0,
    "pct_bajo": 98.33333333333333,
    "pct_medio": 1.6666666666666667
  },
  {
    "codigo": "EC010164",
    "nombre": "Santa Ana",
    "provincia": "Azuay",
    "lat": -2.965459984742383,
    "lon": -78.91237307047948,
    "tipo_zona": 0,
    "altitud": 1500.0,
    "precip_promedio": 25.700333333333337,
    "riesgo": "Bajo",
    "pct_alto": 0.0,
    "pct_bajo": 98.88888888888889,
    "pct_medio": 1.1111111111111112
  },
  {
    "codigo": "EC010165",
    "nombre": "Sayausí",
    "provincia": "Azuay",
    "lat": -2.807058915246243,
    "lon": -79.15914497316106,
    "tipo_zona": 0,
    "altitud": 1526.4,
    "precip_promedio": 33.99183333333333,
    "riesgo": "Bajo",
    "pct_alto": 0.0,
    "pct_bajo": 97.77777777777777,
    "pct_medio": 2.2222222222222223
  },
  {
    "codigo": "EC010166",
    "nombre": "Sidcay",
    "provincia": "Azuay",
    "lat": -2.815719222595749,
    "lon": -78.96802103045621,
    "tipo_zona": 0,
    "altitud": 1500.0,
    "precip_promedio": 25.324055555555557,
    "riesgo": "Bajo",
    "pct_alto": 0.0,
    "pct_bajo": 97.77777777777777,
    "pct_medio": 2.2222222222222223
  },
  {
    "codigo": "EC010167",
    "nombre": "Sinincay",
    "provincia": "Azuay",
    "lat": -2.841715935080783,
    "lon": -79.0350885424721,
    "tipo_zona": 0,
    "altitud": 1558.3,
    "precip_promedio": 28.692777777777778,
    "riesgo": "Bajo",
    "pct_alto": 0.0,
    "pct_bajo": 96.66666666666667,
    "pct_medio": 3.3333333333333335
  },
  {
    "codigo": "EC010168",
    "nombre": "Tarqui",
    "provincia": "Azuay",
    "lat": -3.005161535396944,
    "lon": -79.05409639162322,
    "tipo_zona": 0,
    "altitud": 1554.8,
    "precip_promedio": 21.773611111111112,
    "riesgo": "Bajo",
    "pct_alto": 0.0,
    "pct_bajo": 99.44444444444444,
    "pct_medio": 0.5555555555555556
  },
  {
    "codigo": "EC010169",
    "nombre": "Turi",
    "provincia": "Azuay",
    "lat": -2.944360309144377,
    "lon": -79.01933103668253,
    "tipo_zona": 0,
    "altitud": 1500.0,
    "precip_promedio": 25.970333333333333,
    "riesgo": "Bajo",
    "pct_alto": 0.0,
    "pct_bajo": 98.33333333333333,
    "pct_medio": 1.6666666666666667
  },
  {
    "codigo": "EC010170",
    "nombre": "Valle",
    "provincia": "Azuay",
    "lat": -2.945309974339018,
    "lon": -78.96737942574822,
    "tipo_zona": 0,
    "altitud": 1513.3,
    "precip_promedio": 25.34755555555556,
    "riesgo": "Bajo",
    "pct_alto": 0.0,
    "pct_bajo": 98.88888888888889,
    "pct_medio": 1.1111111111111112
  },
  {
    "codigo": "EC010171",
    "nombre": "Victoria del Portete",
    "provincia": "Azuay",
    "lat": -3.0698671166021185,
    "lon": -79.12235735471495,
    "tipo_zona": 0,
    "altitud": 1500.0,
    "precip_promedio": 20.83061111111111,
    "riesgo": "Bajo",
    "pct_alto": 0.0,
    "pct_bajo": 98.88888888888889,
    "pct_medio": 1.1111111111111112
  },
  {
    "codigo": "EC010250",
    "nombre": "Girón",
    "provincia": "Azuay",
    "lat": -3.178750062407792,
    "lon": -79.12838705592708,
    "tipo_zona": 0,
    "altitud": 1626.2,
    "precip_promedio": 21.673222222222222,
    "riesgo": "Bajo",
    "pct_alto": 0.0,
    "pct_bajo": 97.22222222222221,
    "pct_medio": 2.7777777777777777
  },
  {
    "codigo": "EC010251",
    "nombre": "La Asunción",
    "provincia": "Azuay",
    "lat": -3.2314692617818133,
    "lon": -79.24391667234639,
    "tipo_zona": 0,
    "altitud": 1927.2,
    "precip_promedio": 22.455222222222222,
    "riesgo": "Bajo",
    "pct_alto": 0.0,
    "pct_bajo": 96.66666666666667,
    "pct_medio": 3.3333333333333335
  },
  {
    "codigo": "EC010252",
    "nombre": "San Gerardo",
    "provincia": "Azuay",
    "lat": -3.126661095069408,
    "lon": -79.21100346203852,
    "tipo_zona": 0,
    "altitud": 1912.2,
    "precip_promedio": 19.700555555555557,
    "riesgo": "Bajo",
    "pct_alto": 0.0,
    "pct_bajo": 96.66666666666667,
    "pct_medio": 3.3333333333333335
  },
  {
    "codigo": "EC010350",
    "nombre": "Gualaceo",
    "provincia": "Azuay",
    "lat": -2.894511847737429,
    "lon": -78.79988204651762,
    "tipo_zona": 0,
    "altitud": 1500.0,
    "precip_promedio": 30.210222222222225,
    "riesgo": "Bajo",
    "pct_alto": 0.0,
    "pct_bajo": 98.33333333333333,
    "pct_medio": 1.6666666666666667
  },
  {
    "codigo": "EC010352",
    "nombre": "Daniel Córdova Toral",
    "provincia": "Azuay",
    "lat": -2.876197430250746,
    "lon": -78.71907588182941,
    "tipo_zona": 0,
    "altitud": 1500.0,
    "precip_promedio": 29.975444444444445,
    "riesgo": "Bajo",
    "pct_alto": 0.0,
    "pct_bajo": 98.33333333333333,
    "pct_medio": 1.6666666666666667
  },
  {
    "codigo": "EC010353",
    "nombre": "Jadán",
    "provincia": "Azuay",
    "lat": -2.89495579517769,
    "lon": -78.85130353217727,
    "tipo_zona": 0,
    "altitud": 1500.0,
    "precip_promedio": 28.67227777777778,
    "riesgo": "Bajo",
    "pct_alto": 0.0,
    "pct_bajo": 97.77777777777777,
    "pct_medio": 2.2222222222222223
  },
  {
    "codigo": "EC010354",
    "nombre": "Mariano Moreno",
    "provincia": "Azuay",
    "lat": -2.84179314882478,
    "lon": -78.72809037728608,
    "tipo_zona": 0,
    "altitud": 1500.0,
    "precip_promedio": 26.215,
    "riesgo": "Bajo",
    "pct_alto": 0.0,
    "pct_bajo": 98.88888888888889,
    "pct_medio": 1.1111111111111112
  },
  {
    "codigo": "EC010356",
    "nombre": "Remigio Crespo Toral",
    "provincia": "Azuay",
    "lat": -2.9359681410350777,
    "lon": -78.73160404734793,
    "tipo_zona": 0,
    "altitud": 1500.0,
    "precip_promedio": 29.195277777777775,
    "riesgo": "Bajo",
    "pct_alto": 0.0,
    "pct_bajo": 98.88888888888889,
    "pct_medio": 1.1111111111111112
  },
  {
    "codigo": "EC010357",
    "nombre": "San Juan",
    "provincia": "Azuay",
    "lat": -2.961728801981128,
    "lon": -78.82501056723085,
    "tipo_zona": 0,
    "altitud": 1500.0,
    "precip_promedio": 27.537333333333336,
    "riesgo": "Bajo",
    "pct_alto": 0.0,
    "pct_bajo": 99.44444444444444,
    "pct_medio": 0.5555555555555556
  },
  {
    "codigo": "EC010358",
    "nombre": "Zhidmad",
    "provincia": "Azuay",
    "lat": -2.9452375370146577,
    "lon": -78.88130576682062,
    "tipo_zona": 0,
    "altitud": 1500.0,
    "precip_promedio": 27.127166666666668,
    "riesgo": "Bajo",
    "pct_alto": 0.0,
    "pct_bajo": 99.44444444444444,
    "pct_medio": 0.5555555555555556
  },
  {
    "codigo": "EC010359",
    "nombre": "Luis Cordero Vega",
    "provincia": "Azuay",
    "lat": -2.940569170832506,
    "lon": -78.6931649569814,
    "tipo_zona": 0,
    "altitud": 1500.0,
    "precip_promedio": 35.14844444444444,
    "riesgo": "Bajo",
    "pct_alto": 0.0,
    "pct_bajo": 96.11111111111111,
    "pct_medio": 3.888888888888889
  },
  {
    "codigo": "EC010360",
    "nombre": "Simón Bolívar",
    "provincia": "Azuay",
    "lat": -2.972308118191663,
    "lon": -78.78934937646021,
    "tipo_zona": 0,
    "altitud": 1500.0,
    "precip_promedio": 32.676611111111114,
    "riesgo": "Bajo",
    "pct_alto": 0.0,
    "pct_bajo": 98.33333333333333,
    "pct_medio": 1.6666666666666667
  },
  {
    "codigo": "EC010450",
    "nombre": "Nabón",
    "provincia": "Azuay",
    "lat": -3.2867912103696124,
    "lon": -79.03875505170733,
    "tipo_zona": 0,
    "altitud": 2007.4,
    "precip_promedio": 19.829722222222223,
    "riesgo": "Bajo",
    "pct_alto": 0.0,
    "pct_bajo": 100.0,
    "pct_medio": 0.0
  },
  {
    "codigo": "EC010451",
    "nombre": "Cochapata",
    "provincia": "Azuay",
    "lat": -3.388648316169189,
    "lon": -79.07561393284436,
    "tipo_zona": 0,
    "altitud": 1975.7,
    "precip_promedio": 18.73938888888889,
    "riesgo": "Bajo",
    "pct_alto": 0.0,
    "pct_bajo": 100.0,
    "pct_medio": 0.0
  },
  {
    "codigo": "EC010452",
    "nombre": "El Progreso",
    "provincia": "Azuay",
    "lat": -3.3735613716047794,
    "lon": -79.24528989066731,
    "tipo_zona": 0,
    "altitud": 1909.0,
    "precip_promedio": 14.470277777777778,
    "riesgo": "Bajo",
    "pct_alto": 0.0,
    "pct_bajo": 99.44444444444444,
    "pct_medio": 0.5555555555555556
  },
  {
    "codigo": "EC010453",
    "nombre": "Las Nieves",
    "provincia": "Azuay",
    "lat": -3.306045700236666,
    "lon": -79.1521149373129,
    "tipo_zona": 0,
    "altitud": 1543.6,
    "precip_promedio": 10.847,
    "riesgo": "Bajo",
    "pct_alto": 0.0,
    "pct_bajo": 100.0,
    "pct_medio": 0.0
  },
  {
    "codigo": "EC010550",
    "nombre": "Paute",
    "provincia": "Azuay",
    "lat": -2.7837823625343723,
    "lon": -78.78114958506804,
    "tipo_zona": 0,
    "altitud": 1500.0,
    "precip_promedio": 19.05922222222222,
    "riesgo": "Bajo",
    "pct_alto": 0.0,
    "pct_bajo": 100.0,
    "pct_medio": 0.0
  },
  {
    "codigo": "EC010552",
    "nombre": "Bulán",
    "provincia": "Azuay",
    "lat": -2.713787126252876,
    "lon": -78.77258545622493,
    "tipo_zona": 0,
    "altitud": 1500.0,
    "precip_promedio": 17.57172222222222,
    "riesgo": "Bajo",
    "pct_alto": 0.0,
    "pct_bajo": 100.0,
    "pct_medio": 0.0
  },
  {
    "codigo": "EC010553",
    "nombre": "Chicán",
    "provincia": "Azuay",
    "lat": -2.812379174570984,
    "lon": -78.75202962893127,
    "tipo_zona": 0,
    "altitud": 1500.0,
    "precip_promedio": 27.734388888888887,
    "riesgo": "Bajo",
    "pct_alto": 0.0,
    "pct_bajo": 99.44444444444444,
    "pct_medio": 0.5555555555555556
  },
  {
    "codigo": "EC010554",
    "nombre": "El Cabo",
    "provincia": "Azuay",
    "lat": -2.8429389467854973,
    "lon": -78.79824050720752,
    "tipo_zona": 0,
    "altitud": 1500.0,
    "precip_promedio": 27.734388888888887,
    "riesgo": "Bajo",
    "pct_alto": 0.0,
    "pct_bajo": 99.44444444444444,
    "pct_medio": 0.5555555555555556
  },
  {
    "codigo": "EC010556",
    "nombre": "Guarainag",
    "provincia": "Azuay",
    "lat": -2.6764207657888,
    "lon": -78.64335067119565,
    "tipo_zona": 0,
    "altitud": 1500.0,
    "precip_promedio": 29.63372222222222,
    "riesgo": "Bajo",
    "pct_alto": 0.0,
    "pct_bajo": 99.44444444444444,
    "pct_medio": 0.5555555555555556
  },
  {
    "codigo": "EC010559",
    "nombre": "San Cristóbal",
    "provincia": "Azuay",
    "lat": -2.83529744687241,
    "lon": -78.84760100187938,
    "tipo_zona": 1,
    "altitud": 1500.0,
    "precip_promedio": 27.159222222222223,
    "riesgo": "Bajo",
    "pct_alto": 1.1111111111111112,
    "pct_bajo": 98.88888888888889,
    "pct_medio": 0.0
  },
  {
    "codigo": "EC010561",
    "nombre": "Tomebamba",
    "provincia": "Azuay",
    "lat": -2.7181228070122536,
    "lon": -78.68309179335613,
    "tipo_zona": 0,
    "altitud": 1500.0,
    "precip_promedio": 23.873166666666666,
    "riesgo": "Bajo",
    "pct_alto": 0.0,
    "pct_bajo": 100.0,
    "pct_medio": 0.0
  },
  {
    "codigo": "EC010562",
    "nombre": "Dug Dug",
    "provincia": "Azuay",
    "lat": -2.72333790829322,
    "lon": -78.72573635537196,
    "tipo_zona": 0,
    "altitud": 1500.0,
    "precip_promedio": 19.451555555555558,
    "riesgo": "Bajo",
    "pct_alto": 0.0,
    "pct_bajo": 100.0,
    "pct_medio": 0.0
  },
  {
    "codigo": "EC010650",
    "nombre": "Pucará",
    "provincia": "Azuay",
    "lat": -3.16980367334731,
    "lon": -79.53102174969149,
    "tipo_zona": 0,
    "altitud": 100.0,
    "precip_promedio": 11.739055555555556,
    "riesgo": "Bajo",
    "pct_alto": 1.6666666666666667,
    "pct_bajo": 93.88888888888889,
    "pct_medio": 4.444444444444445
  },
  {
    "codigo": "EC010652",
    "nombre": "San Rafael de Sharug",
    "provincia": "Azuay",
    "lat": -3.272129190572333,
    "lon": -79.53999203341772,
    "tipo_zona": 0,
    "altitud": 100.0,
    "precip_promedio": 30.01061111111111,
    "riesgo": "Bajo",
    "pct_alto": 7.222222222222221,
    "pct_bajo": 81.66666666666667,
    "pct_medio": 11.11111111111111
  },
  {
    "codigo": "EC010750",
    "nombre": "San Fernando",
    "provincia": "Azuay",
    "lat": -3.14116006692589,
    "lon": -79.27302349442691,
    "tipo_zona": 0,
    "altitud": 1923.6,
    "precip_promedio": 17.320666666666664,
    "riesgo": "Bajo",
    "pct_alto": 0.0,
    "pct_bajo": 98.88888888888889,
    "pct_medio": 1.1111111111111112
  },
  {
    "codigo": "EC010751",
    "nombre": "Chumblín",
    "provincia": "Azuay",
    "lat": -3.094127159602424,
    "lon": -79.24541687357137,
    "tipo_zona": 0,
    "altitud": 2025.7,
    "precip_promedio": 20.948166666666665,
    "riesgo": "Bajo",
    "pct_alto": 0.0,
    "pct_bajo": 95.55555555555556,
    "pct_medio": 4.444444444444445
  },
  {
    "codigo": "EC010850",
    "nombre": "Santa Isabel",
    "provincia": "Azuay",
    "lat": -3.308959685154798,
    "lon": -79.35555372780287,
    "tipo_zona": 0,
    "altitud": 2310.3,
    "precip_promedio": 17.981777777777776,
    "riesgo": "Bajo",
    "pct_alto": 0.0,
    "pct_bajo": 97.77777777777777,
    "pct_medio": 2.2222222222222223
  },
  {
    "codigo": "EC010851",
    "nombre": "Abdón Calderón",
    "provincia": "Azuay",
    "lat": -3.2578326463878184,
    "lon": -79.27197945580201,
    "tipo_zona": 0,
    "altitud": 1843.4,
    "precip_promedio": 17.22383333333333,
    "riesgo": "Bajo",
    "pct_alto": 0.0,
    "pct_bajo": 97.22222222222221,
    "pct_medio": 2.7777777777777777
  },
  {
    "codigo": "EC010852",
    "nombre": "El Carmen de Pijilí",
    "provincia": "Azuay",
    "lat": -2.9776880393753555,
    "lon": -79.5438234775807,
    "tipo_zona": 0,
    "altitud": 100.0,
    "precip_promedio": 34.01755555555555,
    "riesgo": "Bajo",
    "pct_alto": 8.333333333333332,
    "pct_bajo": 77.77777777777779,
    "pct_medio": 13.88888888888889
  },
  {
    "codigo": "EC010853",
    "nombre": "Shaglli",
    "provincia": "Azuay",
    "lat": -3.099086552616896,
    "lon": -79.3932592010625,
    "tipo_zona": 0,
    "altitud": 2682.0,
    "precip_promedio": 15.539944444444444,
    "riesgo": "Bajo",
    "pct_alto": 0.0,
    "pct_bajo": 97.77777777777777,
    "pct_medio": 2.2222222222222223
  },
  {
    "codigo": "EC010854",
    "nombre": "San Salvador de Cañaribamba",
    "provincia": "Azuay",
    "lat": -3.223983438002477,
    "lon": -79.35840976166335,
    "tipo_zona": 0,
    "altitud": 2481.7,
    "precip_promedio": 13.861722222222223,
    "riesgo": "Bajo",
    "pct_alto": 0.0,
    "pct_bajo": 98.33333333333333,
    "pct_medio": 1.6666666666666667
  },
  {
    "codigo": "EC010950",
    "nombre": "Sígsig",
    "provincia": "Azuay",
    "lat": -3.0656790358147643,
    "lon": -78.75819456019977,
    "tipo_zona": 0,
    "altitud": 1500.0,
    "precip_promedio": 28.14622222222222,
    "riesgo": "Bajo",
    "pct_alto": 0.0,
    "pct_bajo": 99.44444444444444,
    "pct_medio": 0.5555555555555556
  },
  {
    "codigo": "EC010951",
    "nombre": "Cuchil",
    "provincia": "Azuay",
    "lat": -3.1327223033415272,
    "lon": -78.80278191086586,
    "tipo_zona": 0,
    "altitud": 1500.0,
    "precip_promedio": 25.3615,
    "riesgo": "Bajo",
    "pct_alto": 0.0,
    "pct_bajo": 99.44444444444444,
    "pct_medio": 0.5555555555555556
  },
  {
    "codigo": "EC010952",
    "nombre": "Jima",
    "provincia": "Azuay",
    "lat": -3.2045071801400526,
    "lon": -78.92215511803902,
    "tipo_zona": 0,
    "altitud": 1500.0,
    "precip_promedio": 24.08961111111111,
    "riesgo": "Bajo",
    "pct_alto": 0.0,
    "pct_bajo": 99.44444444444444,
    "pct_medio": 0.5555555555555556
  },
  {
    "codigo": "EC010953",
    "nombre": "Güel",
    "provincia": "Azuay",
    "lat": -3.027383071200358,
    "lon": -78.76153772620276,
    "tipo_zona": 0,
    "altitud": 1500.0,
    "precip_promedio": 29.81472222222222,
    "riesgo": "Bajo",
    "pct_alto": 0.0,
    "pct_bajo": 99.44444444444444,
    "pct_medio": 0.5555555555555556
  },
  {
    "codigo": "EC010954",
    "nombre": "Ludo",
    "provincia": "Azuay",
    "lat": -3.093616853989541,
    "lon": -78.88338178721467,
    "tipo_zona": 0,
    "altitud": 1500.0,
    "precip_promedio": 26.163999999999998,
    "riesgo": "Bajo",
    "pct_alto": 0.0,
    "pct_bajo": 99.44444444444444,
    "pct_medio": 0.5555555555555556
  },
  {
    "codigo": "EC010955",
    "nombre": "San Bartolomé",
    "provincia": "Azuay",
    "lat": -3.014029961013849,
    "lon": -78.84835391622293,
    "tipo_zona": 0,
    "altitud": 1500.0,
    "precip_promedio": 28.08994444444444,
    "riesgo": "Bajo",
    "pct_alto": 0.0,
    "pct_bajo": 99.44444444444444,
    "pct_medio": 0.5555555555555556
  },
  {
    "codigo": "EC010956",
    "nombre": "San José de Raranga",
    "provincia": "Azuay",
    "lat": -3.136329176938365,
    "lon": -78.93772674542822,
    "tipo_zona": 0,
    "altitud": 1500.0,
    "precip_promedio": 24.814333333333334,
    "riesgo": "Bajo",
    "pct_alto": 0.0,
    "pct_bajo": 99.44444444444444,
    "pct_medio": 0.5555555555555556
  },
  {
    "codigo": "EC011050",
    "nombre": "San Felipe de Oña",
    "provincia": "Azuay",
    "lat": -3.5113229803402906,
    "lon": -79.10737879014852,
    "tipo_zona": 0,
    "altitud": 1677.3,
    "precip_promedio": 20.40727777777778,
    "riesgo": "Bajo",
    "pct_alto": 0.0,
    "pct_bajo": 100.0,
    "pct_medio": 0.0
  },
  {
    "codigo": "EC011051",
    "nombre": "Susudel",
    "provincia": "Azuay",
    "lat": -3.4190993056752057,
    "lon": -79.20370923127122,
    "tipo_zona": 0,
    "altitud": 1902.2,
    "precip_promedio": 25.388111111111108,
    "riesgo": "Bajo",
    "pct_alto": 0.0,
    "pct_bajo": 96.66666666666667,
    "pct_medio": 3.3333333333333335
  },
  {
    "codigo": "EC011150",
    "nombre": "Chordeleg",
    "provincia": "Azuay",
    "lat": -2.940874953264103,
    "lon": -78.77637914939518,
    "tipo_zona": 0,
    "altitud": 1500.0,
    "precip_promedio": 31.841111111111108,
    "riesgo": "Bajo",
    "pct_alto": 0.0,
    "pct_bajo": 98.33333333333333,
    "pct_medio": 1.6666666666666667
  },
  {
    "codigo": "EC011151",
    "nombre": "Principal",
    "provincia": "Azuay",
    "lat": -3.0244742567281526,
    "lon": -78.71644430265017,
    "tipo_zona": 0,
    "altitud": 1500.0,
    "precip_promedio": 28.62961111111111,
    "riesgo": "Bajo",
    "pct_alto": 0.0,
    "pct_bajo": 99.44444444444444,
    "pct_medio": 0.5555555555555556
  },
  {
    "codigo": "EC011152",
    "nombre": "La Unión",
    "provincia": "Azuay",
    "lat": -2.9437611897589373,
    "lon": -78.7531141358641,
    "tipo_zona": 0,
    "altitud": 1500.0,
    "precip_promedio": 31.841111111111108,
    "riesgo": "Bajo",
    "pct_alto": 0.0,
    "pct_bajo": 98.33333333333333,
    "pct_medio": 1.6666666666666667
  },
  {
    "codigo": "EC011153",
    "nombre": "Luis Galarza Orellana",
    "provincia": "Azuay",
    "lat": -2.997687835772369,
    "lon": -78.71376041798544,
    "tipo_zona": 0,
    "altitud": 1500.0,
    "precip_promedio": 28.84627777777778,
    "riesgo": "Bajo",
    "pct_alto": 0.0,
    "pct_bajo": 99.44444444444444,
    "pct_medio": 0.5555555555555556
  },
  {
    "codigo": "EC011154",
    "nombre": "San Martín de Puzhio",
    "provincia": "Azuay",
    "lat": -2.9778977113993457,
    "lon": -78.74786689388537,
    "tipo_zona": 0,
    "altitud": 1500.0,
    "precip_promedio": 28.84627777777778,
    "riesgo": "Bajo",
    "pct_alto": 0.0,
    "pct_bajo": 99.44444444444444,
    "pct_medio": 0.5555555555555556
  },
  {
    "codigo": "EC011250",
    "nombre": "El Pan",
    "provincia": "Azuay",
    "lat": -2.7803866652400573,
    "lon": -78.67037990205384,
    "tipo_zona": 0,
    "altitud": 1500.0,
    "precip_promedio": 19.46138888888889,
    "riesgo": "Bajo",
    "pct_alto": 0.0,
    "pct_bajo": 100.0,
    "pct_medio": 0.0
  },
  {
    "codigo": "EC011253",
    "nombre": "San Vicente",
    "provincia": "Azuay",
    "lat": -2.873748033343615,
    "lon": -78.65171657745798,
    "tipo_zona": 0,
    "altitud": 1500.0,
    "precip_promedio": 33.75055555555556,
    "riesgo": "Bajo",
    "pct_alto": 0.0,
    "pct_bajo": 96.11111111111111,
    "pct_medio": 3.888888888888889
  },
  {
    "codigo": "EC011350",
    "nombre": "Sevilla de Oro",
    "provincia": "Azuay",
    "lat": -2.7957338656584,
    "lon": -78.62295679100747,
    "tipo_zona": 0,
    "altitud": 1500.0,
    "precip_promedio": 32.697944444444445,
    "riesgo": "Bajo",
    "pct_alto": 0.0,
    "pct_bajo": 97.22222222222221,
    "pct_medio": 2.7777777777777777
  },
  {
    "codigo": "EC011351",
    "nombre": "Amaluza",
    "provincia": "Azuay",
    "lat": -2.627923621576235,
    "lon": -78.5247961545527,
    "tipo_zona": 0,
    "altitud": 1500.0,
    "precip_promedio": 37.811166666666665,
    "riesgo": "Bajo",
    "pct_alto": 0.0,
    "pct_bajo": 96.66666666666667,
    "pct_medio": 3.3333333333333335
  },
  {
    "codigo": "EC011352",
    "nombre": "Palmas",
    "provincia": "Azuay",
    "lat": -2.696890208760927,
    "lon": -78.60306794565281,
    "tipo_zona": 0,
    "altitud": 1500.0,
    "precip_promedio": 29.63372222222222,
    "riesgo": "Bajo",
    "pct_alto": 0.0,
    "pct_bajo": 99.44444444444444,
    "pct_medio": 0.5555555555555556
  },
  {
    "codigo": "EC011450",
    "nombre": "Guachapala",
    "provincia": "Azuay",
    "lat": -2.7733367151424204,
    "lon": -78.70197167927581,
    "tipo_zona": 0,
    "altitud": 1500.0,
    "precip_promedio": 19.490166666666667,
    "riesgo": "Bajo",
    "pct_alto": 0.0,
    "pct_bajo": 100.0,
    "pct_medio": 0.0
  },
  {
    "codigo": "EC011550",
    "nombre": "Camilo Ponce enríquez",
    "provincia": "Azuay",
    "lat": -3.0507122216634235,
    "lon": -79.67222871910997,
    "tipo_zona": 0,
    "altitud": 100.0,
    "precip_promedio": 32.711000000000006,
    "riesgo": "Bajo",
    "pct_alto": 9.444444444444445,
    "pct_bajo": 77.77777777777779,
    "pct_medio": 12.777777777777777
  },
  {
    "codigo": "EC020150",
    "nombre": "Guaranda",
    "provincia": "Bolívar",
    "lat": -1.5129455111521517,
    "lon": -79.01182301158525,
    "tipo_zona": 0,
    "altitud": 1500.0,
    "precip_promedio": 32.115722222222225,
    "riesgo": "Bajo",
    "pct_alto": 0.0,
    "pct_bajo": 96.66666666666667,
    "pct_medio": 3.3333333333333335
  },
  {
    "codigo": "EC020151",
    "nombre": "Facundo Vela",
    "provincia": "Bolívar",
    "lat": -1.2177626150465115,
    "lon": -79.10633440173721,
    "tipo_zona": 0,
    "altitud": 1608.6,
    "precip_promedio": 49.33172222222222,
    "riesgo": "Bajo",
    "pct_alto": 0.0,
    "pct_bajo": 82.77777777777777,
    "pct_medio": 17.22222222222222
  },
  {
    "codigo": "EC020153",
    "nombre": "Julio E. Moreno",
    "provincia": "Bolívar",
    "lat": -1.5744670594381156,
    "lon": -79.0928960559681,
    "tipo_zona": 0,
    "altitud": 1566.2,
    "precip_promedio": 38.98872222222222,
    "riesgo": "Bajo",
    "pct_alto": 0.0,
    "pct_bajo": 88.33333333333333,
    "pct_medio": 11.666666666666666
  },
  {
    "codigo": "EC020155",
    "nombre": "Salinas",
    "provincia": "Bolívar",
    "lat": -1.385237069521815,
    "lon": -79.09944464620784,
    "tipo_zona": 0,
    "altitud": 1559.1,
    "precip_promedio": 32.83222222222222,
    "riesgo": "Bajo",
    "pct_alto": 0.0,
    "pct_bajo": 92.77777777777779,
    "pct_medio": 7.222222222222221
  },
  {
    "codigo": "EC020156",
    "nombre": "San Lorenzo",
    "provincia": "Bolívar",
    "lat": -1.685186031673681,
    "lon": -78.92961601119588,
    "tipo_zona": 0,
    "altitud": 1500.0,
    "precip_promedio": 17.830222222222222,
    "riesgo": "Bajo",
    "pct_alto": 0.0,
    "pct_bajo": 97.77777777777777,
    "pct_medio": 2.2222222222222223
  },
  {
    "codigo": "EC020157",
    "nombre": "San Simón",
    "provincia": "Bolívar",
    "lat": -1.6370230587995287,
    "lon": -78.93228423223063,
    "tipo_zona": 0,
    "altitud": 1500.0,
    "precip_promedio": 22.022222222222222,
    "riesgo": "Bajo",
    "pct_alto": 0.0,
    "pct_bajo": 97.77777777777777,
    "pct_medio": 2.2222222222222223
  },
  {
    "codigo": "EC020158",
    "nombre": "Santa Fe",
    "provincia": "Bolívar",
    "lat": -1.6137501782242172,
    "lon": -79.03313100076173,
    "tipo_zona": 0,
    "altitud": 1500.0,
    "precip_promedio": 30.991444444444443,
    "riesgo": "Bajo",
    "pct_alto": 0.0,
    "pct_bajo": 96.11111111111111,
    "pct_medio": 3.888888888888889
  },
  {
    "codigo": "EC020159",
    "nombre": "Simiátug",
    "provincia": "Bolívar",
    "lat": -1.274304298889184,
    "lon": -78.98474050785964,
    "tipo_zona": 0,
    "altitud": 1500.0,
    "precip_promedio": 26.398833333333332,
    "riesgo": "Bajo",
    "pct_alto": 0.0,
    "pct_bajo": 96.66666666666667,
    "pct_medio": 3.3333333333333335
  },
  {
    "codigo": "EC020160",
    "nombre": "San Luis de Pambil",
    "provincia": "Bolívar",
    "lat": -1.2380139429037968,
    "lon": -79.2019767933959,
    "tipo_zona": 0,
    "altitud": 1842.0,
    "precip_promedio": 56.922999999999995,
    "riesgo": "Bajo",
    "pct_alto": 0.0,
    "pct_bajo": 73.33333333333333,
    "pct_medio": 26.666666666666668
  },
  {
    "codigo": "EC020250",
    "nombre": "Chillanes",
    "provincia": "Bolívar",
    "lat": -2.0092559064420303,
    "lon": -79.0844830993469,
    "tipo_zona": 0,
    "altitud": 1569.5,
    "precip_promedio": 44.342,
    "riesgo": "Bajo",
    "pct_alto": 0.0,
    "pct_bajo": 83.88888888888889,
    "pct_medio": 16.11111111111111
  },
  {
    "codigo": "EC020251",
    "nombre": "San José del Tambo",
    "provincia": "Bolívar",
    "lat": -2.02964230328906,
    "lon": -79.1930018656339,
    "tipo_zona": 0,
    "altitud": 1556.7,
    "precip_promedio": 51.32983333333334,
    "riesgo": "Bajo",
    "pct_alto": 0.0,
    "pct_bajo": 79.44444444444444,
    "pct_medio": 20.555555555555554
  },
  {
    "codigo": "EC020350",
    "nombre": "San José de Chimbo",
    "provincia": "Bolívar",
    "lat": -1.6661946335290354,
    "lon": -79.01941558036378,
    "tipo_zona": 0,
    "altitud": 1500.0,
    "precip_promedio": 28.781888888888886,
    "riesgo": "Bajo",
    "pct_alto": 0.0,
    "pct_bajo": 97.22222222222221,
    "pct_medio": 2.7777777777777777
  },
  {
    "codigo": "EC020351",
    "nombre": "Asunción",
    "provincia": "Bolívar",
    "lat": -1.6388446847583589,
    "lon": -79.06077457561834,
    "tipo_zona": 0,
    "altitud": 1500.0,
    "precip_promedio": 38.62122222222222,
    "riesgo": "Bajo",
    "pct_alto": 0.0,
    "pct_bajo": 88.88888888888889,
    "pct_medio": 11.11111111111111
  },
  {
    "codigo": "EC020353",
    "nombre": "La Magdalena",
    "provincia": "Bolívar",
    "lat": -1.673353430565674,
    "lon": -79.09375710658819,
    "tipo_zona": 0,
    "altitud": 1500.0,
    "precip_promedio": 36.407722222222226,
    "riesgo": "Bajo",
    "pct_alto": 0.0,
    "pct_bajo": 89.44444444444444,
    "pct_medio": 10.555555555555555
  },
  {
    "codigo": "EC020354",
    "nombre": "San Sebastián",
    "provincia": "Bolívar",
    "lat": -1.6869389713134415,
    "lon": -79.05256795609981,
    "tipo_zona": 0,
    "altitud": 1526.2,
    "precip_promedio": 36.407722222222226,
    "riesgo": "Bajo",
    "pct_alto": 0.0,
    "pct_bajo": 89.44444444444444,
    "pct_medio": 10.555555555555555
  },
  {
    "codigo": "EC020355",
    "nombre": "Telimbela",
    "provincia": "Bolívar",
    "lat": -1.6819180128238058,
    "lon": -79.19730027565521,
    "tipo_zona": 0,
    "altitud": 1741.0,
    "precip_promedio": 52.797000000000004,
    "riesgo": "Bajo",
    "pct_alto": 0.0,
    "pct_bajo": 78.88888888888889,
    "pct_medio": 21.11111111111111
  },
  {
    "codigo": "EC020450",
    "nombre": "Echeandía",
    "provincia": "Bolívar",
    "lat": -1.4531858403253508,
    "lon": -79.26381654914567,
    "tipo_zona": 0,
    "altitud": 2028.0,
    "precip_promedio": 58.127,
    "riesgo": "Bajo",
    "pct_alto": 0.0,
    "pct_bajo": 75.55555555555556,
    "pct_medio": 24.444444444444443
  },
  {
    "codigo": "EC020550",
    "nombre": "San Miguel",
    "provincia": "Bolívar",
    "lat": -1.7724237924377813,
    "lon": -79.0427809048856,
    "tipo_zona": 0,
    "altitud": 1500.0,
    "precip_promedio": 22.731777777777776,
    "riesgo": "Bajo",
    "pct_alto": 0.0,
    "pct_bajo": 97.77777777777777,
    "pct_medio": 2.2222222222222223
  },
  {
    "codigo": "EC020551",
    "nombre": "Balsapamba",
    "provincia": "Bolívar",
    "lat": -1.755711278409407,
    "lon": -79.15308371262344,
    "tipo_zona": 0,
    "altitud": 1500.0,
    "precip_promedio": 54.833277777777774,
    "riesgo": "Bajo",
    "pct_alto": 0.0,
    "pct_bajo": 78.88888888888889,
    "pct_medio": 21.11111111111111
  },
  {
    "codigo": "EC020552",
    "nombre": "Bilován",
    "provincia": "Bolívar",
    "lat": -1.824702939380949,
    "lon": -79.15934640720099,
    "tipo_zona": 0,
    "altitud": 1754.2,
    "precip_promedio": 53.56377777777777,
    "riesgo": "Bajo",
    "pct_alto": 0.0,
    "pct_bajo": 78.33333333333333,
    "pct_medio": 21.666666666666668
  },
  {
    "codigo": "EC020553",
    "nombre": "Régulo de Mora",
    "provincia": "Bolívar",
    "lat": -1.8900165233032904,
    "lon": -79.19980582974686,
    "tipo_zona": 0,
    "altitud": 1886.2,
    "precip_promedio": 50.48288888888889,
    "riesgo": "Bajo",
    "pct_alto": 0.0,
    "pct_bajo": 81.66666666666667,
    "pct_medio": 18.333333333333332
  },
  {
    "codigo": "EC020554",
    "nombre": "San Pablo",
    "provincia": "Bolívar",
    "lat": -1.816435448576708,
    "lon": -79.06922814069951,
    "tipo_zona": 0,
    "altitud": 1500.0,
    "precip_promedio": 35.9545,
    "riesgo": "Bajo",
    "pct_alto": 0.0,
    "pct_bajo": 88.88888888888889,
    "pct_medio": 11.11111111111111
  },
  {
    "codigo": "EC020555",
    "nombre": "Santiago",
    "provincia": "Bolívar",
    "lat": -1.7223480958364472,
    "lon": -78.95245853914983,
    "tipo_zona": 0,
    "altitud": 1500.0,
    "precip_promedio": 28.83688888888889,
    "riesgo": "Bajo",
    "pct_alto": 0.0,
    "pct_bajo": 95.55555555555556,
    "pct_medio": 4.444444444444445
  },
  {
    "codigo": "EC020556",
    "nombre": "San Vicente",
    "provincia": "Bolívar",
    "lat": -1.7420960936005585,
    "lon": -78.99285880519348,
    "tipo_zona": 0,
    "altitud": 1500.0,
    "precip_promedio": 28.83688888888889,
    "riesgo": "Bajo",
    "pct_alto": 0.0,
    "pct_bajo": 95.55555555555556,
    "pct_medio": 4.444444444444445
  },
  {
    "codigo": "EC020650",
    "nombre": "Caluma",
    "provincia": "Bolívar",
    "lat": -1.608401585140805,
    "lon": -79.21829344852111,
    "tipo_zona": 0,
    "altitud": 1676.5,
    "precip_promedio": 61.75966666666667,
    "riesgo": "Bajo",
    "pct_alto": 0.0,
    "pct_bajo": 75.55555555555556,
    "pct_medio": 24.444444444444443
  },
  {
    "codigo": "EC020750",
    "nombre": "Las Naves",
    "provincia": "Bolívar",
    "lat": -1.2859625670145838,
    "lon": -79.29214125643878,
    "tipo_zona": 0,
    "altitud": 1683.5,
    "precip_promedio": 54.85038888888889,
    "riesgo": "Bajo",
    "pct_alto": 0.0,
    "pct_bajo": 75.55555555555556,
    "pct_medio": 24.444444444444443
  },
  {
    "codigo": "EC030150",
    "nombre": "Azogues",
    "provincia": "Cañar",
    "lat": -2.716949382388626,
    "lon": -78.82473737198134,
    "tipo_zona": 0,
    "altitud": 1500.0,
    "precip_promedio": 23.30077777777778,
    "riesgo": "Bajo",
    "pct_alto": 0.0,
    "pct_bajo": 100.0,
    "pct_medio": 0.0
  },
  {
    "codigo": "EC030151",
    "nombre": "Cojitambo",
    "provincia": "Cañar",
    "lat": -2.75793023532402,
    "lon": -78.88522617962931,
    "tipo_zona": 0,
    "altitud": 1500.0,
    "precip_promedio": 25.153666666666666,
    "riesgo": "Bajo",
    "pct_alto": 0.0,
    "pct_bajo": 98.88888888888889,
    "pct_medio": 1.1111111111111112
  },
  {
    "codigo": "EC030153",
    "nombre": "Guapán",
    "provincia": "Cañar",
    "lat": -2.6603233557342376,
    "lon": -78.83257848307522,
    "tipo_zona": 0,
    "altitud": 1500.0,
    "precip_promedio": 21.5825,
    "riesgo": "Bajo",
    "pct_alto": 0.0,
    "pct_bajo": 100.0,
    "pct_medio": 0.0
  },
  {
    "codigo": "EC030154",
    "nombre": "Javier Loyola",
    "provincia": "Cañar",
    "lat": -2.8055852358269684,
    "lon": -78.88901857001665,
    "tipo_zona": 0,
    "altitud": 1500.0,
    "precip_promedio": 27.375166666666665,
    "riesgo": "Bajo",
    "pct_alto": 0.0,
    "pct_bajo": 98.88888888888889,
    "pct_medio": 1.1111111111111112
  },
  {
    "codigo": "EC030155",
    "nombre": "Luis Cordero",
    "provincia": "Cañar",
    "lat": -2.7428805407058983,
    "lon": -78.8128965379932,
    "tipo_zona": 0,
    "altitud": 1500.0,
    "precip_promedio": 23.30077777777778,
    "riesgo": "Bajo",
    "pct_alto": 0.0,
    "pct_bajo": 100.0,
    "pct_medio": 0.0
  },
  {
    "codigo": "EC030156",
    "nombre": "Pindilig",
    "provincia": "Cañar",
    "lat": -2.603727835818474,
    "lon": -78.71911232597343,
    "tipo_zona": 0,
    "altitud": 1500.0,
    "precip_promedio": 17.650333333333332,
    "riesgo": "Bajo",
    "pct_alto": 0.0,
    "pct_bajo": 100.0,
    "pct_medio": 0.0
  },
  {
    "codigo": "EC030157",
    "nombre": "Rivera",
    "provincia": "Cañar",
    "lat": -2.489630259536759,
    "lon": -78.60694859830434,
    "tipo_zona": 0,
    "altitud": 1500.0,
    "precip_promedio": 28.661499999999997,
    "riesgo": "Bajo",
    "pct_alto": 0.0,
    "pct_bajo": 99.44444444444444,
    "pct_medio": 0.5555555555555556
  },
  {
    "codigo": "EC030158",
    "nombre": "San Miguel",
    "provincia": "Cañar",
    "lat": -2.8000282575047044,
    "lon": -78.84115525721461,
    "tipo_zona": 0,
    "altitud": 1500.0,
    "precip_promedio": 27.159222222222223,
    "riesgo": "Bajo",
    "pct_alto": 0.0,
    "pct_bajo": 98.88888888888889,
    "pct_medio": 1.1111111111111112
  },
  {
    "codigo": "EC030160",
    "nombre": "Taday",
    "provincia": "Cañar",
    "lat": -2.658122529497584,
    "lon": -78.70651922864207,
    "tipo_zona": 0,
    "altitud": 1500.0,
    "precip_promedio": 17.85088888888889,
    "riesgo": "Bajo",
    "pct_alto": 0.0,
    "pct_bajo": 100.0,
    "pct_medio": 0.0
  },
  {
    "codigo": "EC030250",
    "nombre": "Biblián",
    "provincia": "Cañar",
    "lat": -2.6678277169373503,
    "lon": -78.90971783347594,
    "tipo_zona": 0,
    "altitud": 1500.0,
    "precip_promedio": 22.222166666666666,
    "riesgo": "Bajo",
    "pct_alto": 0.0,
    "pct_bajo": 99.44444444444444,
    "pct_medio": 0.5555555555555556
  },
  {
    "codigo": "EC030251",
    "nombre": "Nazón",
    "provincia": "Cañar",
    "lat": -2.6897462539865646,
    "lon": -78.98006613400933,
    "tipo_zona": 0,
    "altitud": 1500.0,
    "precip_promedio": 21.247999999999998,
    "riesgo": "Bajo",
    "pct_alto": 0.0,
    "pct_bajo": 99.44444444444444,
    "pct_medio": 0.5555555555555556
  },
  {
    "codigo": "EC030252",
    "nombre": "San Francisco de Sageo",
    "provincia": "Cañar",
    "lat": -2.709943941449426,
    "lon": -78.87643325449706,
    "tipo_zona": 0,
    "altitud": 1500.0,
    "precip_promedio": 25.561666666666667,
    "riesgo": "Bajo",
    "pct_alto": 0.0,
    "pct_bajo": 98.33333333333333,
    "pct_medio": 1.6666666666666667
  },
  {
    "codigo": "EC030253",
    "nombre": "Turupamba",
    "provincia": "Cañar",
    "lat": -2.7286037401513714,
    "lon": -78.90854056513524,
    "tipo_zona": 0,
    "altitud": 1500.0,
    "precip_promedio": 25.850333333333335,
    "riesgo": "Bajo",
    "pct_alto": 0.0,
    "pct_bajo": 97.22222222222221,
    "pct_medio": 2.7777777777777777
  },
  {
    "codigo": "EC030254",
    "nombre": "Jerusalén",
    "provincia": "Cañar",
    "lat": -2.653809953894935,
    "lon": -78.96939520991272,
    "tipo_zona": 0,
    "altitud": 1500.0,
    "precip_promedio": 21.247999999999998,
    "riesgo": "Bajo",
    "pct_alto": 0.0,
    "pct_bajo": 99.44444444444444,
    "pct_medio": 0.5555555555555556
  },
  {
    "codigo": "EC030350",
    "nombre": "Cañar",
    "provincia": "Cañar",
    "lat": -2.5445652642426886,
    "lon": -78.98434351585935,
    "tipo_zona": 0,
    "altitud": 1721.4,
    "precip_promedio": 11.779166666666667,
    "riesgo": "Bajo",
    "pct_alto": 0.0,
    "pct_bajo": 100.0,
    "pct_medio": 0.0
  },
  {
    "codigo": "EC030351",
    "nombre": "Chontamarca",
    "provincia": "Cañar",
    "lat": -2.392258112565938,
    "lon": -79.154045729531,
    "tipo_zona": 0,
    "altitud": 1933.0,
    "precip_promedio": 39.263555555555556,
    "riesgo": "Bajo",
    "pct_alto": 0.0,
    "pct_bajo": 88.33333333333333,
    "pct_medio": 11.666666666666666
  },
  {
    "codigo": "EC030352",
    "nombre": "Chorocopte",
    "provincia": "Cañar",
    "lat": -2.595165859747965,
    "lon": -78.96705827018002,
    "tipo_zona": 0,
    "altitud": 1500.0,
    "precip_promedio": 15.771055555555556,
    "riesgo": "Bajo",
    "pct_alto": 0.0,
    "pct_bajo": 100.0,
    "pct_medio": 0.0
  },
  {
    "codigo": "EC030353",
    "nombre": "General Morales",
    "provincia": "Cañar",
    "lat": -2.367601065583378,
    "lon": -79.04940543006819,
    "tipo_zona": 0,
    "altitud": 1769.5,
    "precip_promedio": 14.852,
    "riesgo": "Bajo",
    "pct_alto": 0.0,
    "pct_bajo": 98.88888888888889,
    "pct_medio": 1.1111111111111112
  },
  {
    "codigo": "EC030354",
    "nombre": "Gualleturo",
    "provincia": "Cañar",
    "lat": -2.580826967297991,
    "lon": -79.09543716745668,
    "tipo_zona": 0,
    "altitud": 1850.0,
    "precip_promedio": 18.69661111111111,
    "riesgo": "Bajo",
    "pct_alto": 0.0,
    "pct_bajo": 98.33333333333333,
    "pct_medio": 1.6666666666666667
  },
  {
    "codigo": "EC030355",
    "nombre": "Honorato Vásquez",
    "provincia": "Cañar",
    "lat": -2.598617481494611,
    "lon": -78.8946251703633,
    "tipo_zona": 0,
    "altitud": 1500.0,
    "precip_promedio": 18.630277777777778,
    "riesgo": "Bajo",
    "pct_alto": 0.0,
    "pct_bajo": 100.0,
    "pct_medio": 0.0
  },
  {
    "codigo": "EC030356",
    "nombre": "Ingapirca",
    "provincia": "Cañar",
    "lat": -2.475230090043242,
    "lon": -78.8033306960893,
    "tipo_zona": 0,
    "altitud": 1500.0,
    "precip_promedio": 13.378666666666666,
    "riesgo": "Bajo",
    "pct_alto": 0.0,
    "pct_bajo": 100.0,
    "pct_medio": 0.0
  },
  {
    "codigo": "EC030357",
    "nombre": "Juncal",
    "provincia": "Cañar",
    "lat": -2.449307740004821,
    "lon": -78.92452366100784,
    "tipo_zona": 0,
    "altitud": 1500.0,
    "precip_promedio": 10.441444444444445,
    "riesgo": "Bajo",
    "pct_alto": 0.0,
    "pct_bajo": 100.0,
    "pct_medio": 0.0
  },
  {
    "codigo": "EC030358",
    "nombre": "San Antonio",
    "provincia": "Cañar",
    "lat": -2.5981475370033724,
    "lon": -79.23300130967577,
    "tipo_zona": 0,
    "altitud": 2131.6,
    "precip_promedio": 27.999277777777777,
    "riesgo": "Bajo",
    "pct_alto": 0.0,
    "pct_bajo": 92.22222222222223,
    "pct_medio": 7.777777777777778
  },
  {
    "codigo": "EC030361",
    "nombre": "Zhud",
    "provincia": "Cañar",
    "lat": -2.449780955643716,
    "lon": -78.98623740897489,
    "tipo_zona": 0,
    "altitud": 1679.3,
    "precip_promedio": 15.955277777777777,
    "riesgo": "Bajo",
    "pct_alto": 0.0,
    "pct_bajo": 98.88888888888889,
    "pct_medio": 1.1111111111111112
  },
  {
    "codigo": "EC030362",
    "nombre": "Ventura",
    "provincia": "Cañar",
    "lat": -2.282414217851723,
    "lon": -79.12998412420187,
    "tipo_zona": 0,
    "altitud": 1500.0,
    "precip_promedio": 44.82788888888889,
    "riesgo": "Bajo",
    "pct_alto": 0.0,
    "pct_bajo": 85.0,
    "pct_medio": 15.0
  },
  {
    "codigo": "EC030363",
    "nombre": "Ducur",
    "provincia": "Cañar",
    "lat": -2.4694138651162816,
    "lon": -79.18604370382626,
    "tipo_zona": 0,
    "altitud": 1500.0,
    "precip_promedio": 40.09838888888889,
    "riesgo": "Bajo",
    "pct_alto": 0.0,
    "pct_bajo": 88.88888888888889,
    "pct_medio": 11.11111111111111
  },
  {
    "codigo": "EC030450",
    "nombre": "La Troncal",
    "provincia": "Cañar",
    "lat": -2.4237085748132934,
    "lon": -79.29064802939402,
    "tipo_zona": 0,
    "altitud": 1748.4,
    "precip_promedio": 47.48877777777778,
    "riesgo": "Bajo",
    "pct_alto": 0.0,
    "pct_bajo": 83.88888888888889,
    "pct_medio": 16.11111111111111
  },
  {
    "codigo": "EC030451",
    "nombre": "Manuel J. Calle",
    "provincia": "Cañar",
    "lat": -2.388983248075464,
    "lon": -79.39259758206549,
    "tipo_zona": 0,
    "altitud": 2104.7,
    "precip_promedio": 50.06944444444444,
    "riesgo": "Bajo",
    "pct_alto": 0.0,
    "pct_bajo": 82.22222222222221,
    "pct_medio": 17.77777777777778
  },
  {
    "codigo": "EC030452",
    "nombre": "Pancho Negro",
    "provincia": "Cañar",
    "lat": -2.472557471790348,
    "lon": -79.41423249079168,
    "tipo_zona": 0,
    "altitud": 2477.4,
    "precip_promedio": 64.10511111111111,
    "riesgo": "Bajo",
    "pct_alto": 0.0,
    "pct_bajo": 77.22222222222223,
    "pct_medio": 22.77777777777778
  },
  {
    "codigo": "EC030550",
    "nombre": "El Tambo",
    "provincia": "Cañar",
    "lat": -2.491837843655392,
    "lon": -78.91894292821601,
    "tipo_zona": 0,
    "altitud": 1524.8,
    "precip_promedio": 16.30377777777778,
    "riesgo": "Bajo",
    "pct_alto": 0.0,
    "pct_bajo": 100.0,
    "pct_medio": 0.0
  },
  {
    "codigo": "EC030650",
    "nombre": "Déleg",
    "provincia": "Cañar",
    "lat": -2.749783881615349,
    "lon": -78.94415186310206,
    "tipo_zona": 0,
    "altitud": 1500.0,
    "precip_promedio": 25.850333333333335,
    "riesgo": "Bajo",
    "pct_alto": 0.0,
    "pct_bajo": 97.22222222222221,
    "pct_medio": 2.7777777777777777
  },
  {
    "codigo": "EC030651",
    "nombre": "Solano",
    "provincia": "Cañar",
    "lat": -2.811514149804765,
    "lon": -78.93126333740042,
    "tipo_zona": 0,
    "altitud": 1500.0,
    "precip_promedio": 26.457722222222223,
    "riesgo": "Bajo",
    "pct_alto": 0.0,
    "pct_bajo": 98.33333333333333,
    "pct_medio": 1.6666666666666667
  },
  {
    "codigo": "EC030750",
    "nombre": "Suscal",
    "provincia": "Cañar",
    "lat": -2.464729729473392,
    "lon": -79.06520202037294,
    "tipo_zona": 0,
    "altitud": 1500.0,
    "precip_promedio": 29.062333333333335,
    "riesgo": "Bajo",
    "pct_alto": 0.0,
    "pct_bajo": 95.55555555555556,
    "pct_medio": 4.444444444444445
  },
  {
    "codigo": "EC040150",
    "nombre": "Tulcán",
    "provincia": "Carchi",
    "lat": 0.7730946088631989,
    "lon": -77.7610276065745,
    "tipo_zona": 1,
    "altitud": 414.8,
    "precip_promedio": 28.1015,
    "riesgo": "Bajo",
    "pct_alto": 1.1111111111111112,
    "pct_bajo": 87.22222222222223,
    "pct_medio": 11.666666666666666
  },
  {
    "codigo": "EC040151",
    "nombre": "El Carmelo",
    "provincia": "Carchi",
    "lat": 0.6698869539467266,
    "lon": -77.62602047307966,
    "tipo_zona": 0,
    "altitud": 396.1,
    "precip_promedio": 32.20633333333333,
    "riesgo": "Bajo",
    "pct_alto": 2.7777777777777777,
    "pct_bajo": 97.22222222222221,
    "pct_medio": 0.0
  },
  {
    "codigo": "EC040153",
    "nombre": "Julio Andrade",
    "provincia": "Carchi",
    "lat": 0.6929469990357565,
    "lon": -77.71469899405984,
    "tipo_zona": 0,
    "altitud": 406.1,
    "precip_promedio": 30.528222222222222,
    "riesgo": "Bajo",
    "pct_alto": 2.2222222222222223,
    "pct_bajo": 97.77777777777777,
    "pct_medio": 0.0
  },
  {
    "codigo": "EC040154",
    "nombre": "Maldonado",
    "provincia": "Carchi",
    "lat": 0.8299421027156088,
    "lon": -78.03586266252972,
    "tipo_zona": 0,
    "altitud": 445.1,
    "precip_promedio": 36.47538888888889,
    "riesgo": "Bajo",
    "pct_alto": 3.3333333333333335,
    "pct_bajo": 96.66666666666667,
    "pct_medio": 0.0
  },
  {
    "codigo": "EC040155",
    "nombre": "Pioter",
    "provincia": "Carchi",
    "lat": 0.6515802415360108,
    "lon": -77.78297078007155,
    "tipo_zona": 0,
    "altitud": 410.9,
    "precip_promedio": 24.42588888888889,
    "riesgo": "Bajo",
    "pct_alto": 0.0,
    "pct_bajo": 100.0,
    "pct_medio": 0.0
  },
  {
    "codigo": "EC040156",
    "nombre": "Tobar Donoso",
    "provincia": "Carchi",
    "lat": 1.0188660168674408,
    "lon": -78.42793188390813,
    "tipo_zona": 0,
    "altitud": 493.7,
    "precip_promedio": 120.91211111111112,
    "riesgo": "Alto",
    "pct_alto": 62.77777777777778,
    "pct_bajo": 37.22222222222222,
    "pct_medio": 0.0
  },
  {
    "codigo": "EC040157",
    "nombre": "Tufiño",
    "provincia": "Carchi",
    "lat": 0.7655096299407188,
    "lon": -77.86900958889697,
    "tipo_zona": 0,
    "altitud": 425.2,
    "precip_promedio": 26.373055555555553,
    "riesgo": "Bajo",
    "pct_alto": 0.5555555555555556,
    "pct_bajo": 99.44444444444444,
    "pct_medio": 0.0
  },
  {
    "codigo": "EC040158",
    "nombre": "Urbina",
    "provincia": "Carchi",
    "lat": 0.7791792045605359,
    "lon": -77.70232250728814,
    "tipo_zona": 0,
    "altitud": 409.2,
    "precip_promedio": 29.061611111111112,
    "riesgo": "Bajo",
    "pct_alto": 1.1111111111111112,
    "pct_bajo": 98.88888888888889,
    "pct_medio": 0.0
  },
  {
    "codigo": "EC040159",
    "nombre": "El Chical",
    "provincia": "Carchi",
    "lat": 0.9953552376020268,
    "lon": -78.26155366647333,
    "tipo_zona": 0,
    "altitud": 475.9,
    "precip_promedio": 107.43050000000001,
    "riesgo": "Alto",
    "pct_alto": 55.55555555555556,
    "pct_bajo": 44.44444444444444,
    "pct_medio": 0.0
  },
  {
    "codigo": "EC040161",
    "nombre": "Santa Martha de Cuba",
    "provincia": "Carchi",
    "lat": 0.645871484491133,
    "lon": -77.76214129472159,
    "tipo_zona": 0,
    "altitud": 408.5,
    "precip_promedio": 20.557666666666666,
    "riesgo": "Bajo",
    "pct_alto": 0.0,
    "pct_bajo": 100.0,
    "pct_medio": 0.0
  },
  {
    "codigo": "EC040250",
    "nombre": "Bolívar",
    "provincia": "Carchi",
    "lat": 0.491905510588215,
    "lon": -77.89194915608476,
    "tipo_zona": 0,
    "altitud": 413.8,
    "precip_promedio": 27.21311111111111,
    "riesgo": "Bajo",
    "pct_alto": 0.0,
    "pct_bajo": 100.0,
    "pct_medio": 0.0
  },
  {
    "codigo": "EC040251",
    "nombre": "García Moreno",
    "provincia": "Carchi",
    "lat": 0.5443396378908834,
    "lon": -77.96573467564953,
    "tipo_zona": 0,
    "altitud": 423.8,
    "precip_promedio": 19.72011111111111,
    "riesgo": "Bajo",
    "pct_alto": 0.0,
    "pct_bajo": 100.0,
    "pct_medio": 0.0
  },
  {
    "codigo": "EC040252",
    "nombre": "Los Andes",
    "provincia": "Carchi",
    "lat": 0.4811041394660276,
    "lon": -77.95686833371325,
    "tipo_zona": 0,
    "altitud": 419.7,
    "precip_promedio": 21.920222222222222,
    "riesgo": "Bajo",
    "pct_alto": 0.0,
    "pct_bajo": 100.0,
    "pct_medio": 0.0
  },
  {
    "codigo": "EC040253",
    "nombre": "Monte Olivo",
    "provincia": "Carchi",
    "lat": 0.3946164491191604,
    "lon": -77.84264581521947,
    "tipo_zona": 0,
    "altitud": 404.0,
    "precip_promedio": 39.8745,
    "riesgo": "Bajo",
    "pct_alto": 4.444444444444445,
    "pct_bajo": 95.55555555555556,
    "pct_medio": 0.0
  },
  {
    "codigo": "EC040254",
    "nombre": "San Vicente de Pusir",
    "provincia": "Carchi",
    "lat": 0.4934494854929925,
    "lon": -78.02246747995194,
    "tipo_zona": 0,
    "altitud": 426.9,
    "precip_promedio": 17.39672222222222,
    "riesgo": "Bajo",
    "pct_alto": 0.0,
    "pct_bajo": 100.0,
    "pct_medio": 0.0
  },
  {
    "codigo": "EC040255",
    "nombre": "San Rafael",
    "provincia": "Carchi",
    "lat": 0.4271832998201919,
    "lon": -77.90787102518794,
    "tipo_zona": 0,
    "altitud": 412.1,
    "precip_promedio": 25.71822222222222,
    "riesgo": "Bajo",
    "pct_alto": 0.0,
    "pct_bajo": 100.0,
    "pct_medio": 0.0
  },
  {
    "codigo": "EC040350",
    "nombre": "El Ángel",
    "provincia": "Carchi",
    "lat": 0.6437329004986345,
    "lon": -77.96767812238114,
    "tipo_zona": 0,
    "altitud": 429.0,
    "precip_promedio": 24.61761111111111,
    "riesgo": "Bajo",
    "pct_alto": 0.0,
    "pct_bajo": 100.0,
    "pct_medio": 0.0
  },
  {
    "codigo": "EC040351",
    "nombre": "El Goaltal",
    "provincia": "Carchi",
    "lat": 0.7700065182644381,
    "lon": -78.12828560640341,
    "tipo_zona": 0,
    "altitud": 451.3,
    "precip_promedio": 45.92594444444445,
    "riesgo": "Bajo",
    "pct_alto": 11.11111111111111,
    "pct_bajo": 88.88888888888889,
    "pct_medio": 0.0
  },
  {
    "codigo": "EC040352",
    "nombre": "La Libertad",
    "provincia": "Carchi",
    "lat": 0.7014666925635927,
    "lon": -77.95298302714576,
    "tipo_zona": 1,
    "altitud": 430.4,
    "precip_promedio": 27.86011111111111,
    "riesgo": "Bajo",
    "pct_alto": 1.1111111111111112,
    "pct_bajo": 84.44444444444444,
    "pct_medio": 14.444444444444443
  },
  {
    "codigo": "EC040353",
    "nombre": "San Isidro",
    "provincia": "Carchi",
    "lat": 0.6066839788140618,
    "lon": -78.00049763283172,
    "tipo_zona": 0,
    "altitud": 430.4,
    "precip_promedio": 22.499388888888888,
    "riesgo": "Bajo",
    "pct_alto": 0.0,
    "pct_bajo": 100.0,
    "pct_medio": 0.0
  },
  {
    "codigo": "EC040450",
    "nombre": "Mira",
    "provincia": "Carchi",
    "lat": 0.5560643438075945,
    "lon": -78.05064733477542,
    "tipo_zona": 0,
    "altitud": 432.9,
    "precip_promedio": 21.831555555555553,
    "riesgo": "Bajo",
    "pct_alto": 0.0,
    "pct_bajo": 100.0,
    "pct_medio": 0.0
  },
  {
    "codigo": "EC040451",
    "nombre": "Concepción",
    "provincia": "Carchi",
    "lat": 0.65698830846555,
    "lon": -78.11178100961162,
    "tipo_zona": 0,
    "altitud": 444.0,
    "precip_promedio": 40.735166666666665,
    "riesgo": "Bajo",
    "pct_alto": 8.88888888888889,
    "pct_bajo": 91.11111111111111,
    "pct_medio": 0.0
  },
  {
    "codigo": "EC040452",
    "nombre": "Jijón y Caamaño",
    "provincia": "Carchi",
    "lat": 0.844601093818749,
    "lon": -78.31619126627163,
    "tipo_zona": 0,
    "altitud": 473.8,
    "precip_promedio": 80.97322222222222,
    "riesgo": "Bajo",
    "pct_alto": 35.55555555555556,
    "pct_bajo": 64.44444444444444,
    "pct_medio": 0.0
  },
  {
    "codigo": "EC040453",
    "nombre": "Juan Montalvo",
    "provincia": "Carchi",
    "lat": 0.5630670624869378,
    "lon": -78.09870529323501,
    "tipo_zona": 0,
    "altitud": 438.0,
    "precip_promedio": 21.831555555555553,
    "riesgo": "Bajo",
    "pct_alto": 0.0,
    "pct_bajo": 100.0,
    "pct_medio": 0.0
  },
  {
    "codigo": "EC040550",
    "nombre": "San Gabriel",
    "provincia": "Carchi",
    "lat": 0.5657718009994406,
    "lon": -77.81735793059975,
    "tipo_zona": 0,
    "altitud": 410.0,
    "precip_promedio": 21.786944444444444,
    "riesgo": "Bajo",
    "pct_alto": 0.0,
    "pct_bajo": 100.0,
    "pct_medio": 0.0
  },
  {
    "codigo": "EC040551",
    "nombre": "Cristóbal Colón",
    "provincia": "Carchi",
    "lat": 0.6172199400065543,
    "lon": -77.8094856636816,
    "tipo_zona": 0,
    "altitud": 411.8,
    "precip_promedio": 22.743277777777777,
    "riesgo": "Bajo",
    "pct_alto": 0.0,
    "pct_bajo": 100.0,
    "pct_medio": 0.0
  },
  {
    "codigo": "EC040552",
    "nombre": "Chitán de Navarrete",
    "provincia": "Carchi",
    "lat": 0.6595946922517759,
    "lon": -77.81166122087515,
    "tipo_zona": 0,
    "altitud": 414.1,
    "precip_promedio": 24.341722222222224,
    "riesgo": "Bajo",
    "pct_alto": 0.0,
    "pct_bajo": 100.0,
    "pct_medio": 0.0
  },
  {
    "codigo": "EC040553",
    "nombre": "Fernández Salvador",
    "provincia": "Carchi",
    "lat": 0.571225426140954,
    "lon": -77.72586175091348,
    "tipo_zona": 0,
    "altitud": 401.1,
    "precip_promedio": 27.37988888888889,
    "riesgo": "Bajo",
    "pct_alto": 1.1111111111111112,
    "pct_bajo": 98.88888888888889,
    "pct_medio": 0.0
  },
  {
    "codigo": "EC040554",
    "nombre": "La Paz",
    "provincia": "Carchi",
    "lat": 0.5191562266563362,
    "lon": -77.84845384980446,
    "tipo_zona": 0,
    "altitud": 410.8,
    "precip_promedio": 28.7195,
    "riesgo": "Bajo",
    "pct_alto": 0.0,
    "pct_bajo": 100.0,
    "pct_medio": 0.0
  },
  {
    "codigo": "EC040555",
    "nombre": "Piartal",
    "provincia": "Carchi",
    "lat": 0.5506481689670746,
    "lon": -77.75295114044495,
    "tipo_zona": 0,
    "altitud": 402.8,
    "precip_promedio": 22.00311111111111,
    "riesgo": "Bajo",
    "pct_alto": 0.0,
    "pct_bajo": 100.0,
    "pct_medio": 0.0
  },
  {
    "codigo": "EC040650",
    "nombre": "Huaca",
    "provincia": "Carchi",
    "lat": 0.6367664936537557,
    "lon": -77.7271305701754,
    "tipo_zona": 0,
    "altitud": 404.6,
    "precip_promedio": 28.33661111111111,
    "riesgo": "Bajo",
    "pct_alto": 1.1111111111111112,
    "pct_bajo": 98.88888888888889,
    "pct_medio": 0.0
  },
  {
    "codigo": "EC040651",
    "nombre": "Mariscal Sucre",
    "provincia": "Carchi",
    "lat": 0.5924450129736115,
    "lon": -77.7035455306902,
    "tipo_zona": 0,
    "altitud": 400.0,
    "precip_promedio": 27.37988888888889,
    "riesgo": "Bajo",
    "pct_alto": 1.1111111111111112,
    "pct_bajo": 98.88888888888889,
    "pct_medio": 0.0
  },
  {
    "codigo": "EC050150",
    "nombre": "Latacunga",
    "provincia": "Cotopaxi",
    "lat": -0.9250621123607048,
    "lon": -78.54844518745152,
    "tipo_zona": 1,
    "altitud": 1500.0,
    "precip_promedio": 17.993388888888887,
    "riesgo": "Bajo",
    "pct_alto": 0.0,
    "pct_bajo": 100.0,
    "pct_medio": 0.0
  },
  {
    "codigo": "EC050151",
    "nombre": "Aláquez",
    "provincia": "Cotopaxi",
    "lat": -0.8505016487226774,
    "lon": -78.49865021510304,
    "tipo_zona": 0,
    "altitud": 407.3,
    "precip_promedio": 17.673444444444442,
    "riesgo": "Bajo",
    "pct_alto": 0.0,
    "pct_bajo": 100.0,
    "pct_medio": 0.0
  },
  {
    "codigo": "EC050152",
    "nombre": "Belisario Quevedo",
    "provincia": "Cotopaxi",
    "lat": -0.9778009357065354,
    "lon": -78.56924756246075,
    "tipo_zona": 1,
    "altitud": 1500.0,
    "precip_promedio": 16.834444444444443,
    "riesgo": "Bajo",
    "pct_alto": 0.0,
    "pct_bajo": 100.0,
    "pct_medio": 0.0
  },
  {
    "codigo": "EC050153",
    "nombre": "Guaytacama",
    "provincia": "Cotopaxi",
    "lat": -0.8298726155459079,
    "lon": -78.64026088498336,
    "tipo_zona": 0,
    "altitud": 1500.0,
    "precip_promedio": 20.480833333333333,
    "riesgo": "Bajo",
    "pct_alto": 0.0,
    "pct_bajo": 100.0,
    "pct_medio": 0.0
  },
  {
    "codigo": "EC050154",
    "nombre": "Joseguango Bajo",
    "provincia": "Cotopaxi",
    "lat": -0.8226154118444832,
    "lon": -78.60260921084664,
    "tipo_zona": 0,
    "altitud": 1500.0,
    "precip_promedio": 20.480833333333333,
    "riesgo": "Bajo",
    "pct_alto": 0.0,
    "pct_bajo": 100.0,
    "pct_medio": 0.0
  },
  {
    "codigo": "EC050156",
    "nombre": "Mulaló",
    "provincia": "Cotopaxi",
    "lat": -0.7204243353341905,
    "lon": -78.49415942849262,
    "tipo_zona": 0,
    "altitud": 413.4,
    "precip_promedio": 27.117555555555555,
    "riesgo": "Bajo",
    "pct_alto": 0.0,
    "pct_bajo": 100.0,
    "pct_medio": 0.0
  },
  {
    "codigo": "EC050157",
    "nombre": "Once de Noviembre",
    "provincia": "Cotopaxi",
    "lat": -0.9178115845658537,
    "lon": -78.66857278376726,
    "tipo_zona": 0,
    "altitud": 1500.0,
    "precip_promedio": 22.4955,
    "riesgo": "Bajo",
    "pct_alto": 0.0,
    "pct_bajo": 100.0,
    "pct_medio": 0.0
  },
  {
    "codigo": "EC050158",
    "nombre": "Poaló",
    "provincia": "Cotopaxi",
    "lat": -0.8866088425249564,
    "lon": -78.7328645489479,
    "tipo_zona": 0,
    "altitud": 1500.0,
    "precip_promedio": 16.31427777777778,
    "riesgo": "Bajo",
    "pct_alto": 0.0,
    "pct_bajo": 100.0,
    "pct_medio": 0.0
  },
  {
    "codigo": "EC050159",
    "nombre": "San Juan de Pastocalle",
    "provincia": "Cotopaxi",
    "lat": -0.680885486752567,
    "lon": -78.63626083590928,
    "tipo_zona": 0,
    "altitud": 1500.0,
    "precip_promedio": 22.45133333333333,
    "riesgo": "Bajo",
    "pct_alto": 0.0,
    "pct_bajo": 100.0,
    "pct_medio": 0.0
  },
  {
    "codigo": "EC050161",
    "nombre": "Tanicuchi",
    "provincia": "Cotopaxi",
    "lat": -0.7644534245457867,
    "lon": -78.64583085520513,
    "tipo_zona": 0,
    "altitud": 1500.0,
    "precip_promedio": 21.22288888888889,
    "riesgo": "Bajo",
    "pct_alto": 0.0,
    "pct_bajo": 100.0,
    "pct_medio": 0.0
  },
  {
    "codigo": "EC050162",
    "nombre": "Toacaso",
    "provincia": "Cotopaxi",
    "lat": -0.7223906424551452,
    "lon": -78.75408961386013,
    "tipo_zona": 0,
    "altitud": 1500.0,
    "precip_promedio": 14.886500000000002,
    "riesgo": "Bajo",
    "pct_alto": 0.0,
    "pct_bajo": 100.0,
    "pct_medio": 0.0
  },
  {
    "codigo": "EC050250",
    "nombre": "La Maná",
    "provincia": "Cotopaxi",
    "lat": -0.9269589748983272,
    "lon": -79.22971795844131,
    "tipo_zona": 0,
    "altitud": 1944.0,
    "precip_promedio": 73.51955555555556,
    "riesgo": "Bajo",
    "pct_alto": 0.0,
    "pct_bajo": 66.11111111111111,
    "pct_medio": 33.88888888888889
  },
  {
    "codigo": "EC050251",
    "nombre": "Guasaganda",
    "provincia": "Cotopaxi",
    "lat": -0.788746211895402,
    "lon": -79.10376490236533,
    "tipo_zona": 0,
    "altitud": 1500.0,
    "precip_promedio": 61.735388888888885,
    "riesgo": "Bajo",
    "pct_alto": 0.0,
    "pct_bajo": 73.88888888888889,
    "pct_medio": 26.111111111111114
  },
  {
    "codigo": "EC050252",
    "nombre": "Pucayacu",
    "provincia": "Cotopaxi",
    "lat": -0.6648442712101579,
    "lon": -79.0809847453402,
    "tipo_zona": 0,
    "altitud": 1500.0,
    "precip_promedio": 56.59744444444444,
    "riesgo": "Bajo",
    "pct_alto": 0.0,
    "pct_bajo": 73.33333333333333,
    "pct_medio": 26.666666666666668
  },
  {
    "codigo": "EC050350",
    "nombre": "El Corazón",
    "provincia": "Cotopaxi",
    "lat": -1.1433564569804415,
    "lon": -79.03720115806927,
    "tipo_zona": 0,
    "altitud": 1500.0,
    "precip_promedio": 53.915055555555554,
    "riesgo": "Bajo",
    "pct_alto": 0.0,
    "pct_bajo": 78.33333333333333,
    "pct_medio": 21.666666666666668
  },
  {
    "codigo": "EC050351",
    "nombre": "Moraspungo",
    "provincia": "Cotopaxi",
    "lat": -1.086977853779015,
    "lon": -79.2302398227543,
    "tipo_zona": 0,
    "altitud": 1500.0,
    "precip_promedio": 58.71622222222222,
    "riesgo": "Bajo",
    "pct_alto": 0.0,
    "pct_bajo": 74.44444444444444,
    "pct_medio": 25.555555555555554
  },
  {
    "codigo": "EC050352",
    "nombre": "Pinllopata",
    "provincia": "Cotopaxi",
    "lat": -1.1473432325101058,
    "lon": -79.00084026492875,
    "tipo_zona": 0,
    "altitud": 1500.0,
    "precip_promedio": 53.915055555555554,
    "riesgo": "Bajo",
    "pct_alto": 0.0,
    "pct_bajo": 78.33333333333333,
    "pct_medio": 21.666666666666668
  },
  {
    "codigo": "EC050353",
    "nombre": "Ramón Campaña",
    "provincia": "Cotopaxi",
    "lat": -1.0736149616603137,
    "lon": -79.09089869749678,
    "tipo_zona": 0,
    "altitud": 1500.0,
    "precip_promedio": 58.00116666666667,
    "riesgo": "Bajo",
    "pct_alto": 0.0,
    "pct_bajo": 73.88888888888889,
    "pct_medio": 26.111111111111114
  },
  {
    "codigo": "EC050450",
    "nombre": "Pujilí",
    "provincia": "Cotopaxi",
    "lat": -0.9985871965210028,
    "lon": -78.72963638202877,
    "tipo_zona": 0,
    "altitud": 1500.0,
    "precip_promedio": 18.36138888888889,
    "riesgo": "Bajo",
    "pct_alto": 0.0,
    "pct_bajo": 100.0,
    "pct_medio": 0.0
  },
  {
    "codigo": "EC050451",
    "nombre": "Angamarca",
    "provincia": "Cotopaxi",
    "lat": -1.1180101993090976,
    "lon": -78.90430213769432,
    "tipo_zona": 0,
    "altitud": 1500.0,
    "precip_promedio": 29.077833333333334,
    "riesgo": "Bajo",
    "pct_alto": 0.0,
    "pct_bajo": 94.44444444444444,
    "pct_medio": 5.555555555555555
  },
  {
    "codigo": "EC050453",
    "nombre": "Guangaje",
    "provincia": "Cotopaxi",
    "lat": -0.9005545958505653,
    "lon": -78.83999534164019,
    "tipo_zona": 0,
    "altitud": 1500.0,
    "precip_promedio": 17.503444444444444,
    "riesgo": "Bajo",
    "pct_alto": 0.0,
    "pct_bajo": 100.0,
    "pct_medio": 0.0
  },
  {
    "codigo": "EC050455",
    "nombre": "La Victoria",
    "provincia": "Cotopaxi",
    "lat": -0.9117911366666904,
    "lon": -78.69941644567376,
    "tipo_zona": 0,
    "altitud": 1500.0,
    "precip_promedio": 22.4955,
    "riesgo": "Bajo",
    "pct_alto": 0.0,
    "pct_bajo": 100.0,
    "pct_medio": 0.0
  },
  {
    "codigo": "EC050456",
    "nombre": "Pilaló",
    "provincia": "Cotopaxi",
    "lat": -0.9948585716175502,
    "lon": -79.0001519768508,
    "tipo_zona": 0,
    "altitud": 1500.0,
    "precip_promedio": 43.31744444444445,
    "riesgo": "Bajo",
    "pct_alto": 0.0,
    "pct_bajo": 84.44444444444444,
    "pct_medio": 15.555555555555555
  },
  {
    "codigo": "EC050457",
    "nombre": "Tingo",
    "provincia": "Cotopaxi",
    "lat": -0.9251619688149816,
    "lon": -79.09642547761945,
    "tipo_zona": 0,
    "altitud": 1500.0,
    "precip_promedio": 52.931777777777775,
    "riesgo": "Bajo",
    "pct_alto": 0.0,
    "pct_bajo": 77.22222222222223,
    "pct_medio": 22.77777777777778
  },
  {
    "codigo": "EC050458",
    "nombre": "Zumbahua",
    "provincia": "Cotopaxi",
    "lat": -0.9578908087222404,
    "lon": -78.89613466176385,
    "tipo_zona": 0,
    "altitud": 1500.0,
    "precip_promedio": 13.1475,
    "riesgo": "Bajo",
    "pct_alto": 0.0,
    "pct_bajo": 100.0,
    "pct_medio": 0.0
  },
  {
    "codigo": "EC050550",
    "nombre": "San Miguel",
    "provincia": "Cotopaxi",
    "lat": -1.0237615738202872,
    "lon": -78.4979828397377,
    "tipo_zona": 0,
    "altitud": 401.0,
    "precip_promedio": 21.09877777777778,
    "riesgo": "Bajo",
    "pct_alto": 0.0,
    "pct_bajo": 100.0,
    "pct_medio": 0.0
  },
  {
    "codigo": "EC050551",
    "nombre": "Antonio José Holguín",
    "provincia": "Cotopaxi",
    "lat": -1.0971386729766988,
    "lon": -78.60021114122145,
    "tipo_zona": 0,
    "altitud": 1500.0,
    "precip_promedio": 16.399944444444444,
    "riesgo": "Bajo",
    "pct_alto": 0.0,
    "pct_bajo": 100.0,
    "pct_medio": 0.0
  },
  {
    "codigo": "EC050552",
    "nombre": "Cusubamba",
    "provincia": "Cotopaxi",
    "lat": -1.0964369869891193,
    "lon": -78.74114841912828,
    "tipo_zona": 0,
    "altitud": 1500.0,
    "precip_promedio": 13.518277777777778,
    "riesgo": "Bajo",
    "pct_alto": 0.0,
    "pct_bajo": 100.0,
    "pct_medio": 0.0
  },
  {
    "codigo": "EC050553",
    "nombre": "Mulalillo",
    "provincia": "Cotopaxi",
    "lat": -1.1046488007804751,
    "lon": -78.63877391777501,
    "tipo_zona": 0,
    "altitud": 1500.0,
    "precip_promedio": 15.555555555555555,
    "riesgo": "Bajo",
    "pct_alto": 0.0,
    "pct_bajo": 100.0,
    "pct_medio": 0.0
  },
  {
    "codigo": "EC050554",
    "nombre": "Mulliquindil",
    "provincia": "Cotopaxi",
    "lat": -1.0129512915996828,
    "lon": -78.53642247817366,
    "tipo_zona": 0,
    "altitud": 1500.0,
    "precip_promedio": 21.19022222222222,
    "riesgo": "Bajo",
    "pct_alto": 0.0,
    "pct_bajo": 100.0,
    "pct_medio": 0.0
  },
  {
    "codigo": "EC050555",
    "nombre": "Pansaleo",
    "provincia": "Cotopaxi",
    "lat": -1.091196987087756,
    "lon": -78.58320088581135,
    "tipo_zona": 0,
    "altitud": 1500.0,
    "precip_promedio": 24.653611111111108,
    "riesgo": "Bajo",
    "pct_alto": 0.0,
    "pct_bajo": 98.33333333333333,
    "pct_medio": 1.6666666666666667
  },
  {
    "codigo": "EC050650",
    "nombre": "Saquisilí",
    "provincia": "Cotopaxi",
    "lat": -0.83665617696058,
    "lon": -78.69470430862386,
    "tipo_zona": 0,
    "altitud": 1500.0,
    "precip_promedio": 19.471944444444443,
    "riesgo": "Bajo",
    "pct_alto": 0.0,
    "pct_bajo": 100.0,
    "pct_medio": 0.0
  },
  {
    "codigo": "EC050651",
    "nombre": "Canchagua",
    "provincia": "Cotopaxi",
    "lat": -0.7970569433996153,
    "lon": -78.74355509158099,
    "tipo_zona": 0,
    "altitud": 1500.0,
    "precip_promedio": 16.8635,
    "riesgo": "Bajo",
    "pct_alto": 0.0,
    "pct_bajo": 100.0,
    "pct_medio": 0.0
  },
  {
    "codigo": "EC050652",
    "nombre": "Chantilín",
    "provincia": "Cotopaxi",
    "lat": -0.8511540044950566,
    "lon": -78.64820376919971,
    "tipo_zona": 0,
    "altitud": 1500.0,
    "precip_promedio": 15.315555555555557,
    "riesgo": "Bajo",
    "pct_alto": 0.0,
    "pct_bajo": 100.0,
    "pct_medio": 0.0
  },
  {
    "codigo": "EC050653",
    "nombre": "Cochapamba",
    "provincia": "Cotopaxi",
    "lat": -0.8409645436901044,
    "lon": -78.76852431628078,
    "tipo_zona": 0,
    "altitud": 1500.0,
    "precip_promedio": 10.202944444444444,
    "riesgo": "Bajo",
    "pct_alto": 0.0,
    "pct_bajo": 100.0,
    "pct_medio": 0.0
  },
  {
    "codigo": "EC050750",
    "nombre": "Sigchos",
    "provincia": "Cotopaxi",
    "lat": -0.6177495680302595,
    "lon": -78.91220954568355,
    "tipo_zona": 0,
    "altitud": 1500.0,
    "precip_promedio": 34.811277777777775,
    "riesgo": "Bajo",
    "pct_alto": 0.0,
    "pct_bajo": 92.77777777777779,
    "pct_medio": 7.222222222222221
  },
  {
    "codigo": "EC050751",
    "nombre": "Chugchillán",
    "provincia": "Cotopaxi",
    "lat": -0.8307855895897474,
    "lon": -78.98235051637481,
    "tipo_zona": 0,
    "altitud": 1500.0,
    "precip_promedio": 40.009166666666665,
    "riesgo": "Bajo",
    "pct_alto": 0.0,
    "pct_bajo": 86.11111111111111,
    "pct_medio": 13.88888888888889
  },
  {
    "codigo": "EC050752",
    "nombre": "Isinlivi",
    "provincia": "Cotopaxi",
    "lat": -0.7827354844384361,
    "lon": -78.85484050992407,
    "tipo_zona": 0,
    "altitud": 1500.0,
    "precip_promedio": 22.6965,
    "riesgo": "Bajo",
    "pct_alto": 0.0,
    "pct_bajo": 98.88888888888889,
    "pct_medio": 1.1111111111111112
  },
  {
    "codigo": "EC050753",
    "nombre": "Las Pampas",
    "provincia": "Cotopaxi",
    "lat": -0.4709390266515464,
    "lon": -78.96945221098105,
    "tipo_zona": 0,
    "altitud": 1500.0,
    "precip_promedio": 40.23511111111111,
    "riesgo": "Bajo",
    "pct_alto": 0.0,
    "pct_bajo": 88.33333333333333,
    "pct_medio": 11.666666666666666
  },
  {
    "codigo": "EC050754",
    "nombre": "Palo Quemado",
    "provincia": "Cotopaxi",
    "lat": -0.4296851472773549,
    "lon": -78.90626956786436,
    "tipo_zona": 0,
    "altitud": 1500.0,
    "precip_promedio": 53.36677777777778,
    "riesgo": "Bajo",
    "pct_alto": 0.0,
    "pct_bajo": 77.77777777777779,
    "pct_medio": 22.22222222222222
  },
  {
    "codigo": "EC060150",
    "nombre": "Riobamba",
    "provincia": "Chimborazo",
    "lat": -1.66958839301495,
    "lon": -78.66262723560068,
    "tipo_zona": 1,
    "altitud": 1500.0,
    "precip_promedio": 15.162833333333333,
    "riesgo": "Bajo",
    "pct_alto": 0.0,
    "pct_bajo": 100.0,
    "pct_medio": 0.0
  },
  {
    "codigo": "EC060151",
    "nombre": "Cacha",
    "provincia": "Chimborazo",
    "lat": -1.7116119952846378,
    "lon": -78.7104917072865,
    "tipo_zona": 0,
    "altitud": 1500.0,
    "precip_promedio": 19.791944444444447,
    "riesgo": "Bajo",
    "pct_alto": 0.0,
    "pct_bajo": 99.44444444444444,
    "pct_medio": 0.5555555555555556
  },
  {
    "codigo": "EC060152",
    "nombre": "Calpi",
    "provincia": "Chimborazo",
    "lat": -1.6205064586624405,
    "lon": -78.75412800199196,
    "tipo_zona": 0,
    "altitud": 1500.0,
    "precip_promedio": 19.58811111111111,
    "riesgo": "Bajo",
    "pct_alto": 0.0,
    "pct_bajo": 99.44444444444444,
    "pct_medio": 0.5555555555555556
  },
  {
    "codigo": "EC060153",
    "nombre": "Cubijíes",
    "provincia": "Chimborazo",
    "lat": -1.6577495792955228,
    "lon": -78.60041759808882,
    "tipo_zona": 0,
    "altitud": 1500.0,
    "precip_promedio": 24.68283333333333,
    "riesgo": "Bajo",
    "pct_alto": 0.0,
    "pct_bajo": 99.44444444444444,
    "pct_medio": 0.5555555555555556
  },
  {
    "codigo": "EC060154",
    "nombre": "Flores",
    "provincia": "Chimborazo",
    "lat": -1.833762206693232,
    "lon": -78.6533472470267,
    "tipo_zona": 0,
    "altitud": 1500.0,
    "precip_promedio": 17.920555555555556,
    "riesgo": "Bajo",
    "pct_alto": 0.0,
    "pct_bajo": 100.0,
    "pct_medio": 0.0
  },
  {
    "codigo": "EC060155",
    "nombre": "Licán",
    "provincia": "Chimborazo",
    "lat": -1.6445322974799323,
    "lon": -78.7109998958727,
    "tipo_zona": 0,
    "altitud": 1500.0,
    "precip_promedio": 20.218444444444444,
    "riesgo": "Bajo",
    "pct_alto": 0.0,
    "pct_bajo": 98.88888888888889,
    "pct_medio": 1.1111111111111112
  },
  {
    "codigo": "EC060156",
    "nombre": "Licto",
    "provincia": "Chimborazo",
    "lat": -1.8004910993802616,
    "lon": -78.61778598909085,
    "tipo_zona": 0,
    "altitud": 1500.0,
    "precip_promedio": 22.458499999999997,
    "riesgo": "Bajo",
    "pct_alto": 0.0,
    "pct_bajo": 99.44444444444444,
    "pct_medio": 0.5555555555555556
  },
  {
    "codigo": "EC060157",
    "nombre": "Pungalá",
    "provincia": "Chimborazo",
    "lat": -1.8600671030088207,
    "lon": -78.50058828961544,
    "tipo_zona": 0,
    "altitud": 1500.0,
    "precip_promedio": 34.440444444444445,
    "riesgo": "Bajo",
    "pct_alto": 0.0,
    "pct_bajo": 97.77777777777777,
    "pct_medio": 2.2222222222222223
  },
  {
    "codigo": "EC060158",
    "nombre": "Punín",
    "provincia": "Chimborazo",
    "lat": -1.7658976663757806,
    "lon": -78.67495018756593,
    "tipo_zona": 0,
    "altitud": 1500.0,
    "precip_promedio": 19.40988888888889,
    "riesgo": "Bajo",
    "pct_alto": 0.0,
    "pct_bajo": 100.0,
    "pct_medio": 0.0
  },
  {
    "codigo": "EC060159",
    "nombre": "Quimiag",
    "provincia": "Chimborazo",
    "lat": -1.6745200020055178,
    "lon": -78.51921618727056,
    "tipo_zona": 0,
    "altitud": 1500.0,
    "precip_promedio": 36.395722222222226,
    "riesgo": "Bajo",
    "pct_alto": 0.0,
    "pct_bajo": 97.77777777777777,
    "pct_medio": 2.2222222222222223
  },
  {
    "codigo": "EC060160",
    "nombre": "San Juan",
    "provincia": "Chimborazo",
    "lat": -1.571390777306645,
    "lon": -78.83120432812004,
    "tipo_zona": 0,
    "altitud": 1500.0,
    "precip_promedio": 17.86883333333333,
    "riesgo": "Bajo",
    "pct_alto": 0.0,
    "pct_bajo": 100.0,
    "pct_medio": 0.0
  },
  {
    "codigo": "EC060161",
    "nombre": "San Luis",
    "provincia": "Chimborazo",
    "lat": -1.7119306874379514,
    "lon": -78.64112576505133,
    "tipo_zona": 0,
    "altitud": 1500.0,
    "precip_promedio": 22.855777777777778,
    "riesgo": "Bajo",
    "pct_alto": 0.0,
    "pct_bajo": 100.0,
    "pct_medio": 0.0
  },
  {
    "codigo": "EC060250",
    "nombre": "Alausí",
    "provincia": "Chimborazo",
    "lat": -2.1860155623183672,
    "lon": -78.85217217619508,
    "tipo_zona": 0,
    "altitud": 1500.0,
    "precip_promedio": 10.520777777777777,
    "riesgo": "Bajo",
    "pct_alto": 0.0,
    "pct_bajo": 100.0,
    "pct_medio": 0.0
  },
  {
    "codigo": "EC060251",
    "nombre": "Achupallas",
    "provincia": "Chimborazo",
    "lat": -2.3017988874788755,
    "lon": -78.66131777601557,
    "tipo_zona": 0,
    "altitud": 1500.0,
    "precip_promedio": 19.404833333333332,
    "riesgo": "Bajo",
    "pct_alto": 0.0,
    "pct_bajo": 100.0,
    "pct_medio": 0.0
  },
  {
    "codigo": "EC060253",
    "nombre": "Guasuntos",
    "provincia": "Chimborazo",
    "lat": -2.225749860741436,
    "lon": -78.78355239498943,
    "tipo_zona": 0,
    "altitud": 1500.0,
    "precip_promedio": 10.509055555555555,
    "riesgo": "Bajo",
    "pct_alto": 0.0,
    "pct_bajo": 100.0,
    "pct_medio": 0.0
  },
  {
    "codigo": "EC060254",
    "nombre": "Huigra",
    "provincia": "Chimborazo",
    "lat": -2.281481476769048,
    "lon": -79.00495307018642,
    "tipo_zona": 0,
    "altitud": 1668.1,
    "precip_promedio": 30.285222222222224,
    "riesgo": "Bajo",
    "pct_alto": 0.0,
    "pct_bajo": 94.44444444444444,
    "pct_medio": 5.555555555555555
  },
  {
    "codigo": "EC060255",
    "nombre": "Multitud",
    "provincia": "Chimborazo",
    "lat": -2.142971893049747,
    "lon": -78.98749369606406,
    "tipo_zona": 0,
    "altitud": 1500.0,
    "precip_promedio": 33.48105555555556,
    "riesgo": "Bajo",
    "pct_alto": 0.0,
    "pct_bajo": 91.66666666666666,
    "pct_medio": 8.333333333333332
  },
  {
    "codigo": "EC060256",
    "nombre": "Pistishi",
    "provincia": "Chimborazo",
    "lat": -2.249431309356816,
    "lon": -78.88021369201454,
    "tipo_zona": 0,
    "altitud": 1500.0,
    "precip_promedio": 19.962555555555554,
    "riesgo": "Bajo",
    "pct_alto": 0.0,
    "pct_bajo": 97.77777777777777,
    "pct_medio": 2.2222222222222223
  },
  {
    "codigo": "EC060257",
    "nombre": "Pumallacta",
    "provincia": "Chimborazo",
    "lat": -2.2774490034809527,
    "lon": -78.80669114205666,
    "tipo_zona": 0,
    "altitud": 1500.0,
    "precip_promedio": 14.886833333333334,
    "riesgo": "Bajo",
    "pct_alto": 0.0,
    "pct_bajo": 99.44444444444444,
    "pct_medio": 0.5555555555555556
  },
  {
    "codigo": "EC060258",
    "nombre": "Sevilla",
    "provincia": "Chimborazo",
    "lat": -2.2961996243991374,
    "lon": -78.82518204952926,
    "tipo_zona": 0,
    "altitud": 1500.0,
    "precip_promedio": 14.886833333333334,
    "riesgo": "Bajo",
    "pct_alto": 0.0,
    "pct_bajo": 99.44444444444444,
    "pct_medio": 0.5555555555555556
  },
  {
    "codigo": "EC060259",
    "nombre": "Sibambe",
    "provincia": "Chimborazo",
    "lat": -2.191166850443282,
    "lon": -78.91460414541406,
    "tipo_zona": 0,
    "altitud": 1500.0,
    "precip_promedio": 16.947111111111113,
    "riesgo": "Bajo",
    "pct_alto": 0.0,
    "pct_bajo": 98.88888888888889,
    "pct_medio": 1.1111111111111112
  },
  {
    "codigo": "EC060260",
    "nombre": "Tixán",
    "provincia": "Chimborazo",
    "lat": -2.1580778473476623,
    "lon": -78.75819684770522,
    "tipo_zona": 0,
    "altitud": 1500.0,
    "precip_promedio": 6.735944444444445,
    "riesgo": "Bajo",
    "pct_alto": 0.0,
    "pct_bajo": 100.0,
    "pct_medio": 0.0
  },
  {
    "codigo": "EC060350",
    "nombre": "Villa la Unión",
    "provincia": "Chimborazo",
    "lat": -1.7351669779058678,
    "lon": -78.79741268879273,
    "tipo_zona": 0,
    "altitud": 1500.0,
    "precip_promedio": 15.986777777777776,
    "riesgo": "Bajo",
    "pct_alto": 0.0,
    "pct_bajo": 100.0,
    "pct_medio": 0.0
  },
  {
    "codigo": "EC060351",
    "nombre": "Cañi",
    "provincia": "Chimborazo",
    "lat": -1.792472768655177,
    "lon": -78.95753494407698,
    "tipo_zona": 0,
    "altitud": 1500.0,
    "precip_promedio": 23.99438888888889,
    "riesgo": "Bajo",
    "pct_alto": 0.0,
    "pct_bajo": 97.77777777777777,
    "pct_medio": 2.2222222222222223
  },
  {
    "codigo": "EC060352",
    "nombre": "Columbe",
    "provincia": "Chimborazo",
    "lat": -1.8626935692155413,
    "lon": -78.77431378230726,
    "tipo_zona": 0,
    "altitud": 1500.0,
    "precip_promedio": 11.244944444444444,
    "riesgo": "Bajo",
    "pct_alto": 0.0,
    "pct_bajo": 100.0,
    "pct_medio": 0.0
  },
  {
    "codigo": "EC060353",
    "nombre": "Juan de Velasco",
    "provincia": "Chimborazo",
    "lat": -1.861640931064273,
    "lon": -78.91246219109627,
    "tipo_zona": 0,
    "altitud": 1500.0,
    "precip_promedio": 33.28033333333333,
    "riesgo": "Bajo",
    "pct_alto": 0.0,
    "pct_bajo": 92.77777777777779,
    "pct_medio": 7.222222222222221
  },
  {
    "codigo": "EC060354",
    "nombre": "Santiago de Quito",
    "provincia": "Chimborazo",
    "lat": -1.7720910303335944,
    "lon": -78.72928847653085,
    "tipo_zona": 1,
    "altitud": 1500.0,
    "precip_promedio": 20.7815,
    "riesgo": "Bajo",
    "pct_alto": 0.5555555555555556,
    "pct_bajo": 99.44444444444444,
    "pct_medio": 0.0
  },
  {
    "codigo": "EC060450",
    "nombre": "Chambo",
    "provincia": "Chimborazo",
    "lat": -1.751066176148601,
    "lon": -78.53828312494389,
    "tipo_zona": 0,
    "altitud": 1500.0,
    "precip_promedio": 43.86988888888889,
    "riesgo": "Bajo",
    "pct_alto": 0.0,
    "pct_bajo": 92.22222222222223,
    "pct_medio": 7.777777777777778
  },
  {
    "codigo": "EC060550",
    "nombre": "Chunchi",
    "provincia": "Chimborazo",
    "lat": -2.330767435720639,
    "lon": -78.87252476748496,
    "tipo_zona": 0,
    "altitud": 1500.0,
    "precip_promedio": 10.825666666666667,
    "riesgo": "Bajo",
    "pct_alto": 0.0,
    "pct_bajo": 100.0,
    "pct_medio": 0.0
  },
  {
    "codigo": "EC060551",
    "nombre": "Capzol",
    "provincia": "Chimborazo",
    "lat": -2.309391207310193,
    "lon": -78.9301487388458,
    "tipo_zona": 0,
    "altitud": 1539.9,
    "precip_promedio": 16.761833333333335,
    "riesgo": "Bajo",
    "pct_alto": 0.0,
    "pct_bajo": 98.33333333333333,
    "pct_medio": 1.6666666666666667
  },
  {
    "codigo": "EC060552",
    "nombre": "Compud",
    "provincia": "Chimborazo",
    "lat": -2.358329868677734,
    "lon": -78.9256176553129,
    "tipo_zona": 0,
    "altitud": 1532.6,
    "precip_promedio": 10.8445,
    "riesgo": "Bajo",
    "pct_alto": 0.0,
    "pct_bajo": 100.0,
    "pct_medio": 0.0
  },
  {
    "codigo": "EC060553",
    "nombre": "Gonzol",
    "provincia": "Chimborazo",
    "lat": -2.2675066439857243,
    "lon": -78.85137588691202,
    "tipo_zona": 0,
    "altitud": 1500.0,
    "precip_promedio": 17.78322222222222,
    "riesgo": "Bajo",
    "pct_alto": 0.0,
    "pct_bajo": 98.88888888888889,
    "pct_medio": 1.1111111111111112
  },
  {
    "codigo": "EC060554",
    "nombre": "Llagos",
    "provincia": "Chimborazo",
    "lat": -2.3648900982889898,
    "lon": -78.97046701952591,
    "tipo_zona": 0,
    "altitud": 1500.0,
    "precip_promedio": 16.532833333333333,
    "riesgo": "Bajo",
    "pct_alto": 0.0,
    "pct_bajo": 98.88888888888889,
    "pct_medio": 1.1111111111111112
  },
  {
    "codigo": "EC060650",
    "nombre": "Guamote",
    "provincia": "Chimborazo",
    "lat": -1.983633294692455,
    "lon": -78.70672478472528,
    "tipo_zona": 0,
    "altitud": 1500.0,
    "precip_promedio": 10.493444444444444,
    "riesgo": "Bajo",
    "pct_alto": 0.0,
    "pct_bajo": 100.0,
    "pct_medio": 0.0
  },
  {
    "codigo": "EC060651",
    "nombre": "Cebadas",
    "provincia": "Chimborazo",
    "lat": -2.0477901629462654,
    "lon": -78.54977609863795,
    "tipo_zona": 0,
    "altitud": 1500.0,
    "precip_promedio": 32.22527777777778,
    "riesgo": "Bajo",
    "pct_alto": 0.0,
    "pct_bajo": 99.44444444444444,
    "pct_medio": 0.5555555555555556
  },
  {
    "codigo": "EC060652",
    "nombre": "Palmira",
    "provincia": "Chimborazo",
    "lat": -2.0796334078760053,
    "lon": -78.75445222314431,
    "tipo_zona": 0,
    "altitud": 1500.0,
    "precip_promedio": 8.097222222222221,
    "riesgo": "Bajo",
    "pct_alto": 0.0,
    "pct_bajo": 100.0,
    "pct_medio": 0.0
  },
  {
    "codigo": "EC060750",
    "nombre": "Guano",
    "provincia": "Chimborazo",
    "lat": -1.6038832033760135,
    "lon": -78.6170151615249,
    "tipo_zona": 0,
    "altitud": 1500.0,
    "precip_promedio": 19.95488888888889,
    "riesgo": "Bajo",
    "pct_alto": 0.0,
    "pct_bajo": 100.0,
    "pct_medio": 0.0
  },
  {
    "codigo": "EC060751",
    "nombre": "Guanando",
    "provincia": "Chimborazo",
    "lat": -1.5031166978672212,
    "lon": -78.52969189371099,
    "tipo_zona": 0,
    "altitud": 1500.0,
    "precip_promedio": 33.089277777777774,
    "riesgo": "Bajo",
    "pct_alto": 0.0,
    "pct_bajo": 98.33333333333333,
    "pct_medio": 1.6666666666666667
  },
  {
    "codigo": "EC060752",
    "nombre": "Ilapo",
    "provincia": "Chimborazo",
    "lat": -1.543932335692923,
    "lon": -78.58177254504261,
    "tipo_zona": 0,
    "altitud": 1500.0,
    "precip_promedio": 24.497944444444446,
    "riesgo": "Bajo",
    "pct_alto": 0.0,
    "pct_bajo": 99.44444444444444,
    "pct_medio": 0.5555555555555556
  },
  {
    "codigo": "EC060753",
    "nombre": "La Providencia",
    "provincia": "Chimborazo",
    "lat": -1.570482012655417,
    "lon": -78.54578770972762,
    "tipo_zona": 0,
    "altitud": 1500.0,
    "precip_promedio": 42.81594444444444,
    "riesgo": "Bajo",
    "pct_alto": 0.0,
    "pct_bajo": 92.22222222222223,
    "pct_medio": 7.777777777777778
  },
  {
    "codigo": "EC060754",
    "nombre": "San Andrés",
    "provincia": "Chimborazo",
    "lat": -1.517673402376459,
    "lon": -78.7483950503285,
    "tipo_zona": 0,
    "altitud": 1500.0,
    "precip_promedio": 27.48772222222222,
    "riesgo": "Bajo",
    "pct_alto": 0.0,
    "pct_bajo": 97.22222222222221,
    "pct_medio": 2.7777777777777777
  },
  {
    "codigo": "EC060755",
    "nombre": "San Gerardo",
    "provincia": "Chimborazo",
    "lat": -1.6366547593167189,
    "lon": -78.6144336327772,
    "tipo_zona": 0,
    "altitud": 1500.0,
    "precip_promedio": 19.95488888888889,
    "riesgo": "Bajo",
    "pct_alto": 0.0,
    "pct_bajo": 100.0,
    "pct_medio": 0.0
  },
  {
    "codigo": "EC060756",
    "nombre": "San Isidro de Patulú",
    "provincia": "Chimborazo",
    "lat": -1.542111046888442,
    "lon": -78.67574638736706,
    "tipo_zona": 0,
    "altitud": 1500.0,
    "precip_promedio": 23.68177777777778,
    "riesgo": "Bajo",
    "pct_alto": 0.0,
    "pct_bajo": 100.0,
    "pct_medio": 0.0
  },
  {
    "codigo": "EC060757",
    "nombre": "San José del Chazo",
    "provincia": "Chimborazo",
    "lat": -1.5275741962867944,
    "lon": -78.55245247784663,
    "tipo_zona": 0,
    "altitud": 1500.0,
    "precip_promedio": 24.497944444444446,
    "riesgo": "Bajo",
    "pct_alto": 0.0,
    "pct_bajo": 99.44444444444444,
    "pct_medio": 0.5555555555555556
  },
  {
    "codigo": "EC060758",
    "nombre": "Santa Fé de Galán",
    "provincia": "Chimborazo",
    "lat": -1.497881736525697,
    "lon": -78.57437601404322,
    "tipo_zona": 0,
    "altitud": 1500.0,
    "precip_promedio": 22.13761111111111,
    "riesgo": "Bajo",
    "pct_alto": 0.0,
    "pct_bajo": 100.0,
    "pct_medio": 0.0
  },
  {
    "codigo": "EC060759",
    "nombre": "Valparaiso",
    "provincia": "Chimborazo",
    "lat": -1.5517684391431723,
    "lon": -78.6086304729982,
    "tipo_zona": 0,
    "altitud": 1500.0,
    "precip_promedio": 18.135666666666665,
    "riesgo": "Bajo",
    "pct_alto": 0.0,
    "pct_bajo": 100.0,
    "pct_medio": 0.0
  },
  {
    "codigo": "EC060850",
    "nombre": "Pallatanga",
    "provincia": "Chimborazo",
    "lat": -2.0172077688883734,
    "lon": -78.93045973699289,
    "tipo_zona": 0,
    "altitud": 1500.0,
    "precip_promedio": 27.901500000000002,
    "riesgo": "Bajo",
    "pct_alto": 0.0,
    "pct_bajo": 95.55555555555556,
    "pct_medio": 4.444444444444445
  },
  {
    "codigo": "EC060950",
    "nombre": "Penipe",
    "provincia": "Chimborazo",
    "lat": -1.5848938563386246,
    "lon": -78.50496611012112,
    "tipo_zona": 0,
    "altitud": 1500.0,
    "precip_promedio": 42.81594444444444,
    "riesgo": "Bajo",
    "pct_alto": 0.0,
    "pct_bajo": 92.22222222222223,
    "pct_medio": 7.777777777777778
  },
  {
    "codigo": "EC060951",
    "nombre": "El Altar",
    "provincia": "Chimborazo",
    "lat": -1.5461010648354758,
    "lon": -78.4424253993388,
    "tipo_zona": 0,
    "altitud": 421.5,
    "precip_promedio": 56.09272222222223,
    "riesgo": "Bajo",
    "pct_alto": 12.222222222222221,
    "pct_bajo": 87.77777777777777,
    "pct_medio": 0.0
  },
  {
    "codigo": "EC060952",
    "nombre": "Matus",
    "provincia": "Chimborazo",
    "lat": -1.5895689682093304,
    "lon": -78.43432391291611,
    "tipo_zona": 0,
    "altitud": 422.9,
    "precip_promedio": 55.25333333333334,
    "riesgo": "Bajo",
    "pct_alto": 12.222222222222221,
    "pct_bajo": 87.77777777777777,
    "pct_medio": 0.0
  },
  {
    "codigo": "EC060953",
    "nombre": "Puela",
    "provincia": "Chimborazo",
    "lat": -1.50509261964357,
    "lon": -78.43855156169059,
    "tipo_zona": 0,
    "altitud": 419.1,
    "precip_promedio": 56.09272222222223,
    "riesgo": "Bajo",
    "pct_alto": 12.222222222222221,
    "pct_bajo": 87.77777777777777,
    "pct_medio": 0.0
  },
  {
    "codigo": "EC060954",
    "nombre": "San Antonio de Bayushig",
    "provincia": "Chimborazo",
    "lat": -1.548931223246847,
    "lon": -78.51796090119008,
    "tipo_zona": 0,
    "altitud": 1500.0,
    "precip_promedio": 33.089277777777774,
    "riesgo": "Bajo",
    "pct_alto": 0.0,
    "pct_bajo": 98.33333333333333,
    "pct_medio": 1.6666666666666667
  },
  {
    "codigo": "EC060955",
    "nombre": "La Candelaria",
    "provincia": "Chimborazo",
    "lat": -1.6403597829192769,
    "lon": -78.4442687316888,
    "tipo_zona": 0,
    "altitud": 426.4,
    "precip_promedio": 48.511611111111115,
    "riesgo": "Bajo",
    "pct_alto": 8.88888888888889,
    "pct_bajo": 91.11111111111111,
    "pct_medio": 0.0
  },
  {
    "codigo": "EC060956",
    "nombre": "Bilbao",
    "provincia": "Chimborazo",
    "lat": -1.4682089450009206,
    "lon": -78.48693146033376,
    "tipo_zona": 0,
    "altitud": 422.1,
    "precip_promedio": 48.005944444444445,
    "riesgo": "Bajo",
    "pct_alto": 11.11111111111111,
    "pct_bajo": 88.88888888888889,
    "pct_medio": 0.0
  },
  {
    "codigo": "EC061050",
    "nombre": "Cumandá",
    "provincia": "Chimborazo",
    "lat": -2.21429818765186,
    "lon": -79.08089399766591,
    "tipo_zona": 0,
    "altitud": 1701.8,
    "precip_promedio": 43.56594444444444,
    "riesgo": "Bajo",
    "pct_alto": 0.0,
    "pct_bajo": 85.0,
    "pct_medio": 15.0
  },
  {
    "codigo": "EC070150",
    "nombre": "Machala",
    "provincia": "El Oro",
    "lat": -3.275419624851406,
    "lon": -79.93808051924098,
    "tipo_zona": 1,
    "altitud": 100.0,
    "precip_promedio": 16.800666666666665,
    "riesgo": "Bajo",
    "pct_alto": 5.0,
    "pct_bajo": 92.22222222222223,
    "pct_medio": 2.7777777777777777
  },
  {
    "codigo": "EC070152",
    "nombre": "El Retiro",
    "provincia": "El Oro",
    "lat": -3.378203678527328,
    "lon": -79.9599331637299,
    "tipo_zona": 0,
    "altitud": 100.0,
    "precip_promedio": 21.227444444444444,
    "riesgo": "Bajo",
    "pct_alto": 6.111111111111111,
    "pct_bajo": 89.44444444444444,
    "pct_medio": 4.444444444444445
  },
  {
    "codigo": "EC070250",
    "nombre": "Arenillas",
    "provincia": "El Oro",
    "lat": -3.611287117528162,
    "lon": -80.02862628749266,
    "tipo_zona": 0,
    "altitud": 100.0,
    "precip_promedio": 37.535777777777774,
    "riesgo": "Bajo",
    "pct_alto": 9.444444444444445,
    "pct_bajo": 79.44444444444444,
    "pct_medio": 11.11111111111111
  },
  {
    "codigo": "EC070251",
    "nombre": "Chacras",
    "provincia": "El Oro",
    "lat": -3.5405238898534623,
    "lon": -80.1641346198005,
    "tipo_zona": 0,
    "altitud": 100.0,
    "precip_promedio": 26.16938888888889,
    "riesgo": "Bajo",
    "pct_alto": 8.333333333333332,
    "pct_bajo": 88.33333333333333,
    "pct_medio": 3.3333333333333335
  },
  {
    "codigo": "EC070254",
    "nombre": "Palmales",
    "provincia": "El Oro",
    "lat": -3.700254382302202,
    "lon": -80.1072157038567,
    "tipo_zona": 0,
    "altitud": 100.0,
    "precip_promedio": 37.262277777777776,
    "riesgo": "Bajo",
    "pct_alto": 9.444444444444445,
    "pct_bajo": 81.11111111111111,
    "pct_medio": 9.444444444444445
  },
  {
    "codigo": "EC070255",
    "nombre": "Carcabón",
    "provincia": "El Oro",
    "lat": -3.631383123142757,
    "lon": -80.16187674686574,
    "tipo_zona": 0,
    "altitud": 100.0,
    "precip_promedio": 30.555055555555555,
    "riesgo": "Bajo",
    "pct_alto": 8.333333333333332,
    "pct_bajo": 86.11111111111111,
    "pct_medio": 5.555555555555555
  },
  {
    "codigo": "EC070256",
    "nombre": "La Cuca",
    "provincia": "El Oro",
    "lat": -3.465591318488678,
    "lon": -80.06905567708016,
    "tipo_zona": 0,
    "altitud": 100.0,
    "precip_promedio": 26.039777777777775,
    "riesgo": "Bajo",
    "pct_alto": 6.666666666666667,
    "pct_bajo": 88.33333333333333,
    "pct_medio": 5.0
  },
  {
    "codigo": "EC070350",
    "nombre": "Paccha",
    "provincia": "El Oro",
    "lat": -3.561816673369257,
    "lon": -79.66326725960216,
    "tipo_zona": 0,
    "altitud": 100.0,
    "precip_promedio": 35.31633333333333,
    "riesgo": "Bajo",
    "pct_alto": 10.0,
    "pct_bajo": 77.77777777777779,
    "pct_medio": 12.222222222222221
  },
  {
    "codigo": "EC070351",
    "nombre": "Ayapamba",
    "provincia": "El Oro",
    "lat": -3.580341784191005,
    "lon": -79.72972460670017,
    "tipo_zona": 0,
    "altitud": 100.0,
    "precip_promedio": 37.736111111111114,
    "riesgo": "Bajo",
    "pct_alto": 10.555555555555555,
    "pct_bajo": 76.66666666666667,
    "pct_medio": 12.777777777777777
  },
  {
    "codigo": "EC070352",
    "nombre": "Cordoncillo",
    "provincia": "El Oro",
    "lat": -3.554027710036763,
    "lon": -79.62915352282309,
    "tipo_zona": 0,
    "altitud": 100.0,
    "precip_promedio": 38.63833333333333,
    "riesgo": "Bajo",
    "pct_alto": 11.11111111111111,
    "pct_bajo": 75.0,
    "pct_medio": 13.88888888888889
  },
  {
    "codigo": "EC070353",
    "nombre": "Milagro",
    "provincia": "El Oro",
    "lat": -3.623460479814778,
    "lon": -79.66723852508794,
    "tipo_zona": 0,
    "altitud": 100.0,
    "precip_promedio": 38.56627777777778,
    "riesgo": "Bajo",
    "pct_alto": 11.666666666666666,
    "pct_bajo": 75.0,
    "pct_medio": 13.333333333333334
  },
  {
    "codigo": "EC070354",
    "nombre": "San José",
    "provincia": "El Oro",
    "lat": -3.628884820296725,
    "lon": -79.65613725596111,
    "tipo_zona": 0,
    "altitud": 100.0,
    "precip_promedio": 38.56627777777778,
    "riesgo": "Bajo",
    "pct_alto": 11.666666666666666,
    "pct_bajo": 75.0,
    "pct_medio": 13.333333333333334
  },
  {
    "codigo": "EC070355",
    "nombre": "San Juan de Cerro Azul",
    "provincia": "El Oro",
    "lat": -3.5172276797572275,
    "lon": -79.76539406050296,
    "tipo_zona": 0,
    "altitud": 100.0,
    "precip_promedio": 38.94138888888889,
    "riesgo": "Bajo",
    "pct_alto": 10.555555555555555,
    "pct_bajo": 76.66666666666667,
    "pct_medio": 12.777777777777777
  },
  {
    "codigo": "EC070450",
    "nombre": "Balsas",
    "provincia": "El Oro",
    "lat": -3.771196525275212,
    "lon": -79.83335372390954,
    "tipo_zona": 0,
    "altitud": 100.0,
    "precip_promedio": 55.75405555555555,
    "riesgo": "Bajo",
    "pct_alto": 16.666666666666664,
    "pct_bajo": 70.0,
    "pct_medio": 13.333333333333334
  },
  {
    "codigo": "EC070451",
    "nombre": "Bellamaría",
    "provincia": "El Oro",
    "lat": -3.759412651155256,
    "lon": -79.85624418978868,
    "tipo_zona": 0,
    "altitud": 100.0,
    "precip_promedio": 56.393166666666666,
    "riesgo": "Bajo",
    "pct_alto": 17.22222222222222,
    "pct_bajo": 70.55555555555556,
    "pct_medio": 12.222222222222221
  },
  {
    "codigo": "EC070550",
    "nombre": "Chilla",
    "provincia": "El Oro",
    "lat": -3.4418083652572253,
    "lon": -79.62745055586366,
    "tipo_zona": 0,
    "altitud": 100.0,
    "precip_promedio": 24.622722222222222,
    "riesgo": "Bajo",
    "pct_alto": 6.666666666666667,
    "pct_bajo": 83.88888888888889,
    "pct_medio": 9.444444444444445
  },
  {
    "codigo": "EC070650",
    "nombre": "El Guabo",
    "provincia": "El Oro",
    "lat": -3.2147350338880787,
    "lon": -79.7681799716977,
    "tipo_zona": 0,
    "altitud": 100.0,
    "precip_promedio": 28.681388888888886,
    "riesgo": "Bajo",
    "pct_alto": 7.222222222222221,
    "pct_bajo": 84.44444444444444,
    "pct_medio": 8.333333333333332
  },
  {
    "codigo": "EC070651",
    "nombre": "Barbones",
    "provincia": "El Oro",
    "lat": -3.167518635402857,
    "lon": -79.87615489846665,
    "tipo_zona": 0,
    "altitud": 100.0,
    "precip_promedio": 19.77477777777778,
    "riesgo": "Bajo",
    "pct_alto": 5.555555555555555,
    "pct_bajo": 90.0,
    "pct_medio": 4.444444444444445
  },
  {
    "codigo": "EC070652",
    "nombre": "La Iberia",
    "provincia": "El Oro",
    "lat": -3.243268554536914,
    "lon": -79.87685045168313,
    "tipo_zona": 0,
    "altitud": 100.0,
    "precip_promedio": 19.151444444444447,
    "riesgo": "Bajo",
    "pct_alto": 5.0,
    "pct_bajo": 91.66666666666666,
    "pct_medio": 3.3333333333333335
  },
  {
    "codigo": "EC070653",
    "nombre": "Tendales",
    "provincia": "El Oro",
    "lat": -3.105225462549141,
    "lon": -79.83897583914862,
    "tipo_zona": 0,
    "altitud": 100.0,
    "precip_promedio": 26.3575,
    "riesgo": "Bajo",
    "pct_alto": 6.666666666666667,
    "pct_bajo": 85.55555555555556,
    "pct_medio": 7.777777777777778
  },
  {
    "codigo": "EC070654",
    "nombre": "Río Bonito",
    "provincia": "El Oro",
    "lat": -3.1299291665666007,
    "lon": -79.71560316051807,
    "tipo_zona": 0,
    "altitud": 100.0,
    "precip_promedio": 30.567333333333334,
    "riesgo": "Bajo",
    "pct_alto": 8.88888888888889,
    "pct_bajo": 79.44444444444444,
    "pct_medio": 11.666666666666666
  },
  {
    "codigo": "EC070750",
    "nombre": "Huaquillas",
    "provincia": "El Oro",
    "lat": -3.4638457501770508,
    "lon": -80.17926215499457,
    "tipo_zona": 0,
    "altitud": 100.0,
    "precip_promedio": 22.37011111111111,
    "riesgo": "Bajo",
    "pct_alto": 6.666666666666667,
    "pct_bajo": 88.88888888888889,
    "pct_medio": 4.444444444444445
  },
  {
    "codigo": "EC070850",
    "nombre": "Marcabelí",
    "provincia": "El Oro",
    "lat": -3.78747873649266,
    "lon": -79.92996329821408,
    "tipo_zona": 0,
    "altitud": 100.0,
    "precip_promedio": 50.128888888888895,
    "riesgo": "Bajo",
    "pct_alto": 15.0,
    "pct_bajo": 72.77777777777777,
    "pct_medio": 12.222222222222221
  },
  {
    "codigo": "EC070851",
    "nombre": "El Ingenio",
    "provincia": "El Oro",
    "lat": -3.728505833948908,
    "lon": -79.94582005813363,
    "tipo_zona": 0,
    "altitud": 100.0,
    "precip_promedio": 47.82055555555556,
    "riesgo": "Bajo",
    "pct_alto": 13.333333333333334,
    "pct_bajo": 73.33333333333333,
    "pct_medio": 13.333333333333334
  },
  {
    "codigo": "EC070950",
    "nombre": "Pasaje",
    "provincia": "El Oro",
    "lat": -3.38447494683986,
    "lon": -79.76842653046037,
    "tipo_zona": 0,
    "altitud": 100.0,
    "precip_promedio": 33.4275,
    "riesgo": "Bajo",
    "pct_alto": 7.222222222222221,
    "pct_bajo": 80.55555555555556,
    "pct_medio": 12.222222222222221
  },
  {
    "codigo": "EC070951",
    "nombre": "Buenavista",
    "provincia": "El Oro",
    "lat": -3.369684993137221,
    "lon": -79.83429419636319,
    "tipo_zona": 0,
    "altitud": 100.0,
    "precip_promedio": 29.190333333333335,
    "riesgo": "Bajo",
    "pct_alto": 6.666666666666667,
    "pct_bajo": 83.33333333333334,
    "pct_medio": 10.0
  },
  {
    "codigo": "EC070952",
    "nombre": "Casacay",
    "provincia": "El Oro",
    "lat": -3.348936116094208,
    "lon": -79.71042294690443,
    "tipo_zona": 0,
    "altitud": 100.0,
    "precip_promedio": 29.83661111111111,
    "riesgo": "Bajo",
    "pct_alto": 7.777777777777778,
    "pct_bajo": 81.66666666666667,
    "pct_medio": 10.555555555555555
  },
  {
    "codigo": "EC070953",
    "nombre": "La Peaña",
    "provincia": "El Oro",
    "lat": -3.3115699358685187,
    "lon": -79.85085027525274,
    "tipo_zona": 0,
    "altitud": 100.0,
    "precip_promedio": 23.729388888888888,
    "riesgo": "Bajo",
    "pct_alto": 6.111111111111111,
    "pct_bajo": 87.22222222222223,
    "pct_medio": 6.666666666666667
  },